{
  "direction_a": [
    {
      "id": "_1",
      "label": "Борча 3",
      "longitude": 20.448276,
      "latitude": 44.874663
    },
    {
      "id": "_2",
      "label": "Беле Бартока",
      "longitude": 20.451806,
      "latitude": 44.877672
    },
    {
      "id": "_3",
      "label": "Комбинатова",
      "longitude": 20.452847,
      "latitude": 44.88063
    },
    {
      "id": "_4",
      "label": "Михајла Шолохова",
      "longitude": 20.456436,
      "latitude": 44.879034
    },
    {
      "id": "_5",
      "label": "Милана Ајваза",
      "longitude": 20.459043,
      "latitude": 44.877394
    },
    {
      "id": "_6",
      "label": "Ваљевског Одреда",
      "longitude": 20.462825,
      "latitude": 44.875422
    },
    {
      "id": "_7",
      "label": "Попова Бара",
      "longitude": 20.468865,
      "latitude": 44.880464
    },
    {
      "id": "_8",
      "label": "Пут за Овчу",
      "longitude": 20.476871,
      "latitude": 44.881273
    },
    {
      "id": "_9",
      "label": "Миргородска",
      "longitude": 20.482778,
      "latitude": 44.881368
    },
    {
      "id": "_10",
      "label": "Бранислава Циге Јеринића",
      "longitude": 20.491675,
      "latitude": 44.882111
    },
    {
      "id": "_11",
      "label": "Ефеска",
      "longitude": 20.496567,
      "latitude": 44.882607
    },
    {
      "id": "_12",
      "label": "Војвођански Салаши",
      "longitude": 20.504195,
      "latitude": 44.883596
    },
    {
      "id": "_13",
      "label": "Атови",
      "longitude": 20.510557,
      "latitude": 44.884411
    },
    {
      "id": "_14",
      "label": "Агро Кока",
      "longitude": 20.51715,
      "latitude": 44.885276
    },
    {
      "id": "_15",
      "label": "Овча /Излаз/",
      "longitude": 20.523268,
      "latitude": 44.886393
    },
    {
      "id": "_16",
      "label": "Овча /Улаз/",
      "longitude": 20.530137,
      "latitude": 44.887037
    },
    {
      "id": "_17",
      "label": "Овча /Центар/",
      "longitude": 20.535209,
      "latitude": 44.888052
    },
    {
      "id": "_18",
      "label": "Овча /Његошева/",
      "longitude": 20.536178,
      "latitude": 44.88558
    },
    {
      "id": "_19",
      "label": "Железничка Рампа",
      "longitude": 20.539316,
      "latitude": 44.875391
    },
    {
      "id": "_20",
      "label": "Овча /Железничка станица/",
      "longitude": 20.543227,
      "latitude": 44.875284
    }
  ],
  "direction_b": [
    {
      "id": "_1",
      "label": "Овча /Железничка станица/",
      "longitude": 20.543227,
      "latitude": 44.875284
    },
    {
      "id": "_2",
      "label": "Железничка Рампа",
      "longitude": 20.539182,
      "latitude": 44.875843
    },
    {
      "id": "_3",
      "label": "Овча /Његошева/",
      "longitude": 20.536221,
      "latitude": 44.885789
    },
    {
      "id": "_4",
      "label": "Овча /Боља/",
      "longitude": 20.538788,
      "latitude": 44.887503
    },
    {
      "id": "_5",
      "label": "Овча /Ницу Рада/",
      "longitude": 20.541995,
      "latitude": 44.888326
    },
    {
      "id": "_6",
      "label": "Овча /Београдска/",
      "longitude": 20.542671,
      "latitude": 44.890271
    },
    {
      "id": "_7",
      "label": "Овча (Жарка Зрењанина)",
      "longitude": 20.538358,
      "latitude": 44.889173
    },
    {
      "id": "_8",
      "label": "Овча /Центар/",
      "longitude": 20.534652,
      "latitude": 44.888269
    },
    {
      "id": "_9",
      "label": "Овча /Улаз/",
      "longitude": 20.529561,
      "latitude": 44.886974
    },
    {
      "id": "_10",
      "label": "Овча /Излаз/",
      "longitude": 20.522767,
      "latitude": 44.886456
    },
    {
      "id": "_11",
      "label": "Агро Кока",
      "longitude": 20.515919,
      "latitude": 44.885289
    },
    {
      "id": "_12",
      "label": "Атови",
      "longitude": 20.509635,
      "latitude": 44.88443
    },
    {
      "id": "_13",
      "label": "Војвођански Салаши",
      "longitude": 20.503677,
      "latitude": 44.883626
    },
    {
      "id": "_14",
      "label": "Ефеска",
      "longitude": 20.497361,
      "latitude": 44.882786
    },
    {
      "id": "_15",
      "label": "Бранислава Циге Јеринића",
      "longitude": 20.491141,
      "latitude": 44.882185
    },
    {
      "id": "_16",
      "label": "Миргородска",
      "longitude": 20.482134,
      "latitude": 44.881336
    },
    {
      "id": "_17",
      "label": "Пут за Овчу",
      "longitude": 20.476389,
      "latitude": 44.881385
    },
    {
      "id": "_18",
      "label": "Попова Бара",
      "longitude": 20.468865,
      "latitude": 44.880663
    },
    {
      "id": "_19",
      "label": "Борча Раскршће",
      "longitude": 20.465893,
      "latitude": 44.878111
    },
    {
      "id": "_20",
      "label": "Ваљевског Одреда",
      "longitude": 20.462125,
      "latitude": 44.875509
    },
    {
      "id": "_21",
      "label": "Милана Ајваза",
      "longitude": 20.459593,
      "latitude": 44.877166
    },
    {
      "id": "_22",
      "label": "Михајла Шолохова",
      "longitude": 20.456892,
      "latitude": 44.878886
    },
    {
      "id": "_23",
      "label": "Комбинатова",
      "longitude": 20.452058,
      "latitude": 44.880064
    },
    {
      "id": "_24",
      "label": "Беле Бартока",
      "longitude": 20.45153,
      "latitude": 44.877187
    },
    {
      "id": "_25",
      "label": "Борча 3",
      "longitude": 20.448276,
      "latitude": 44.874663
    }
  ]
}