{
  "direction_a": [
    {
      "id": "_1",
      "label": "Падинска Скела",
      "longitude": 20.424614,
      "latitude": 44.945046
    },
    {
      "id": "_2",
      "label": "Падинска Скела (Ратомира Стојадиновића)",
      "longitude": 20.428203,
      "latitude": 44.941897
    },
    {
      "id": "_3",
      "label": "Падинска Скела (Марије Илић Агапове)",
      "longitude": 20.431931,
      "latitude": 44.937743
    },
    {
      "id": "_4",
      "label": "Насеље Товилиште",
      "longitude": 20.435606,
      "latitude": 44.93529
    },
    {
      "id": "_5",
      "label": "КП Дом",
      "longitude": 20.428278,
      "latitude": 44.954116
    },
    {
      "id": "_6",
      "label": "Сефкерешки Канал",
      "longitude": 20.418633,
      "latitude": 44.971982
    },
    {
      "id": "_7",
      "label": "Пут за Врбовски",
      "longitude": 20.412265,
      "latitude": 44.992563
    },
    {
      "id": "_8",
      "label": "Бесни Фок",
      "longitude": 20.409052,
      "latitude": 45.001876
    },
    {
      "id": "_9",
      "label": "Прелив",
      "longitude": 20.399034,
      "latitude": 45.021333
    },
    {
      "id": "_10",
      "label": "Насипска Чуварница",
      "longitude": 20.393763,
      "latitude": 45.032668
    },
    {
      "id": "_11",
      "label": "Јапански Цвет",
      "longitude": 20.391435,
      "latitude": 45.051974
    },
    {
      "id": "_12",
      "label": "Дунавац",
      "longitude": 20.385588,
      "latitude": 45.06755
    }
  ],
  "direction_b": [
    {
      "id": "_1",
      "label": "Дунавац",
      "longitude": 20.385588,
      "latitude": 45.06755
    },
    {
      "id": "_2",
      "label": "Јапански Цвет",
      "longitude": 20.392025,
      "latitude": 45.050392
    },
    {
      "id": "_3",
      "label": "Насипска Чуварница",
      "longitude": 20.393511,
      "latitude": 45.033604
    },
    {
      "id": "_4",
      "label": "Прелив",
      "longitude": 20.398151,
      "latitude": 45.021919
    },
    {
      "id": "_5",
      "label": "Бесни Фок",
      "longitude": 20.408719,
      "latitude": 45.002119
    },
    {
      "id": "_6",
      "label": "Пут за Врбовски",
      "longitude": 20.412169,
      "latitude": 44.991971
    },
    {
      "id": "_7",
      "label": "Сефкерешки Канал",
      "longitude": 20.417823,
      "latitude": 44.973007
    },
    {
      "id": "_8",
      "label": "КП Дом",
      "longitude": 20.427119,
      "latitude": 44.95472
    },
    {
      "id": "_9",
      "label": "Насеље Товилиште",
      "longitude": 20.436019,
      "latitude": 44.935265
    },
    {
      "id": "_10",
      "label": "Падинска Скела (Марије Илић Агапове)",
      "longitude": 20.431979,
      "latitude": 44.937853
    },
    {
      "id": "_11",
      "label": "Падинска Скела (Ратомира Стојадиновића)",
      "longitude": 20.428761,
      "latitude": 44.941718
    },
    {
      "id": "_12",
      "label": "Падинска Скела",
      "longitude": 20.424614,
      "latitude": 44.945046
    }
  ]
}