{
  "direction_a": [
    {
      "id": "_1",
      "label": "Падинска Скела",
      "longitude": 20.424614,
      "latitude": 44.945046
    },
    {
      "id": "_2",
      "label": "Падинска Скела (Ратомира Стојадиновића)",
      "longitude": 20.428203,
      "latitude": 44.941897
    },
    {
      "id": "_3",
      "label": "Падинска Скела (Марије Илић Агапове)",
      "longitude": 20.431931,
      "latitude": 44.937743
    },
    {
      "id": "_4",
      "label": "Насеље Товилиште",
      "longitude": 20.435606,
      "latitude": 44.93529
    },
    {
      "id": "_5",
      "label": "КП Дом",
      "longitude": 20.428278,
      "latitude": 44.954116
    },
    {
      "id": "_6",
      "label": "Сефкерешки Канал",
      "longitude": 20.418633,
      "latitude": 44.971982
    },
    {
      "id": "_7",
      "label": "Пут за Врбовски",
      "longitude": 20.412265,
      "latitude": 44.992563
    },
    {
      "id": "_8",
      "label": "Сефкерин",
      "longitude": 20.479752,
      "latitude": 45.009005
    },
    {
      "id": "_9",
      "label": "Опово-1",
      "longitude": 20.438948,
      "latitude": 45.044519
    },
    {
      "id": "_10",
      "label": "Опово",
      "longitude": 20.427886,
      "latitude": 45.054275
    }
  ],
  "direction_b": [
    {
      "id": "_1",
      "label": "Опово",
      "longitude": 20.427886,
      "latitude": 45.054275
    },
    {
      "id": "_2",
      "label": "Опово-1",
      "longitude": 20.437556,
      "latitude": 45.045145
    },
    {
      "id": "_3",
      "label": "Сефкерин",
      "longitude": 20.479226,
      "latitude": 45.008625
    },
    {
      "id": "_4",
      "label": "Пут за Врбовски",
      "longitude": 20.412169,
      "latitude": 44.991971
    },
    {
      "id": "_5",
      "label": "Сефкерешки Канал",
      "longitude": 20.417823,
      "latitude": 44.973007
    },
    {
      "id": "_6",
      "label": "КП Дом",
      "longitude": 20.427119,
      "latitude": 44.95472
    },
    {
      "id": "_7",
      "label": "Насеље Товилиште",
      "longitude": 20.436019,
      "latitude": 44.935265
    },
    {
      "id": "_8",
      "label": "Падинска Скела (Марије Илић Агапове)",
      "longitude": 20.431979,
      "latitude": 44.937853
    },
    {
      "id": "_9",
      "label": "Падинска Скела (Ратомира Стојадиновића)",
      "longitude": 20.428761,
      "latitude": 44.941718
    },
    {
      "id": "_10",
      "label": "Падинска Скела",
      "longitude": 20.424614,
      "latitude": 44.945046
    }
  ]
}