{
  "direction_a": [
    {
      "id": "_1",
      "label": "Карабурма 2",
      "longitude": 20.522053,
      "latitude": 44.806861
    },
    {
      "id": "_2",
      "label": "Салвадора Аљендеа",
      "longitude": 20.522111,
      "latitude": 44.810066
    },
    {
      "id": "_3",
      "label": "Хусињских Рудара",
      "longitude": 20.517866,
      "latitude": 44.812988
    },
    {
      "id": "_4",
      "label": "Стевана Христића",
      "longitude": 20.514058,
      "latitude": 44.81303
    },
    {
      "id": "_5",
      "label": "Диљска",
      "longitude": 20.510437,
      "latitude": 44.813179
    },
    {
      "id": "_6",
      "label": "Патриса Лумумбе",
      "longitude": 20.506355,
      "latitude": 44.814743
    },
    {
      "id": "_7",
      "label": "Вука Врчевића",
      "longitude": 20.496706,
      "latitude": 44.817951
    },
    {
      "id": "_8",
      "label": "Панчевачки мост",
      "longitude": 20.488037,
      "latitude": 44.818103
    },
    {
      "id": "_9",
      "label": "Центар за Културу Влада Дивљан",
      "longitude": 20.484602,
      "latitude": 44.817696
    },
    {
      "id": "_10",
      "label": "Jована Авакумовића",
      "longitude": 20.479505,
      "latitude": 44.817357
    },
    {
      "id": "_11",
      "label": "Цвијићева",
      "longitude": 20.475976,
      "latitude": 44.817205
    },
    {
      "id": "_12",
      "label": "Џорџа Вашингтона",
      "longitude": 20.470002,
      "latitude": 44.816959
    },
    {
      "id": "_13",
      "label": "Скадарска",
      "longitude": 20.463938,
      "latitude": 44.8166
    },
    {
      "id": "_14",
      "label": "Зелени венац",
      "longitude": 20.457047,
      "latitude": 44.814461
    },
    {
      "id": "_15",
      "label": "Бранков мост",
      "longitude": 20.452359,
      "latitude": 44.815207
    },
    {
      "id": "_16",
      "label": "Шест Каплара",
      "longitude": 20.433538,
      "latitude": 44.815291
    },
    {
      "id": "_17",
      "label": "Палата Србија",
      "longitude": 20.429748,
      "latitude": 44.816931
    },
    {
      "id": "_18",
      "label": "Шпанских Бораца",
      "longitude": 20.423498,
      "latitude": 44.81972
    },
    {
      "id": "_19",
      "label": "Блок 30",
      "longitude": 20.416712,
      "latitude": 44.822821
    },
    {
      "id": "_20",
      "label": "Архив",
      "longitude": 20.412968,
      "latitude": 44.825488
    },
    {
      "id": "_21",
      "label": "Маршала Толбухина булевар",
      "longitude": 20.411664,
      "latitude": 44.829255
    },
    {
      "id": "_22",
      "label": "Нови Београд /Павильони/",
      "longitude": 20.404766,
      "latitude": 44.830419
    }
  ],
  "direction_b": [
    {
      "id": "_1",
      "label": "Нови Београд /Павильони/",
      "longitude": 20.404275,
      "latitude": 44.830043
    },
    {
      "id": "_2",
      "label": "Маршала Толбухина булевар",
      "longitude": 20.411053,
      "latitude": 44.829753
    },
    {
      "id": "_3",
      "label": "Архив",
      "longitude": 20.411997,
      "latitude": 44.827033
    },
    {
      "id": "_4",
      "label": "ГО Нови Београд",
      "longitude": 20.414298,
      "latitude": 44.823536
    },
    {
      "id": "_5",
      "label": "Блок 30",
      "longitude": 20.418305,
      "latitude": 44.821759
    },
    {
      "id": "_6",
      "label": "Шпанских Бораца",
      "longitude": 20.42308,
      "latitude": 44.819617
    },
    {
      "id": "_7",
      "label": "Палата Србија",
      "longitude": 20.428643,
      "latitude": 44.817131
    },
    {
      "id": "_8",
      "label": "Шест Каплара",
      "longitude": 20.433229,
      "latitude": 44.815093
    },
    {
      "id": "_9",
      "label": "Бранков мост",
      "longitude": 20.452112,
      "latitude": 44.81492
    },
    {
      "id": "_10",
      "label": "Зелени венац",
      "longitude": 20.456843,
      "latitude": 44.814282
    },
    {
      "id": "_11",
      "label": "Дом Омладине",
      "longitude": 20.462535,
      "latitude": 44.815304
    },
    {
      "id": "_12",
      "label": "Џорџа Вашингтона",
      "longitude": 20.469852,
      "latitude": 44.816762
    },
    {
      "id": "_13",
      "label": "Цвијићева",
      "longitude": 20.47747,
      "latitude": 44.817106
    },
    {
      "id": "_14",
      "label": "Центар за Културу Влада Дивљан",
      "longitude": 20.483124,
      "latitude": 44.817372
    },
    {
      "id": "_15",
      "label": "Панчевачки мост",
      "longitude": 20.48829,
      "latitude": 44.817834
    },
    {
      "id": "_16",
      "label": "Вука Врчевића",
      "longitude": 20.495446,
      "latitude": 44.817608
    },
    {
      "id": "_17",
      "label": "Војводе Мицка Крстића",
      "longitude": 20.501067,
      "latitude": 44.817644
    },
    {
      "id": "_18",
      "label": "Патриса Лумумбе",
      "longitude": 20.506209,
      "latitude": 44.81469
    },
    {
      "id": "_19",
      "label": "Диљска",
      "longitude": 20.510973,
      "latitude": 44.813056
    },
    {
      "id": "_20",
      "label": "Стевана Христића",
      "longitude": 20.51336,
      "latitude": 44.81296
    },
    {
      "id": "_21",
      "label": "Хусињских Рудара",
      "longitude": 20.517951,
      "latitude": 44.812735
    },
    {
      "id": "_22",
      "label": "Салвадора Аљендеа",
      "longitude": 20.521707,
      "latitude": 44.810591
    },
    {
      "id": "_23",
      "label": "Карабурма 2",
      "longitude": 20.521973,
      "latitude": 44.807384
    },
    {
      "id": "_24",
      "label": "Карабурма 2",
      "longitude": 20.522053,
      "latitude": 44.806861
    }
  ]
}