{
  "direction_a": [
    {
      "id": "_1",
      "label": "Коњарник",
      "longitude": 20.510957,
      "latitude": 44.782307
    },
    {
      "id": "_2",
      "label": "Петрињска",
      "longitude": 20.505786,
      "latitude": 44.782968
    },
    {
      "id": "_3",
      "label": "Шумице",
      "longitude": 20.500032,
      "latitude": 44.783659
    },
    {
      "id": "_4",
      "label": "Хотел Србија",
      "longitude": 20.493842,
      "latitude": 44.78416
    },
    {
      "id": "_5",
      "label": "Грчића Миленка",
      "longitude": 20.486495,
      "latitude": 44.784386
    },
    {
      "id": "_6",
      "label": "Душановац /Пошта/",
      "longitude": 20.48134,
      "latitude": 44.784809
    },
    {
      "id": "_7",
      "label": "Дом Здравља Вождовац",
      "longitude": 20.473918,
      "latitude": 44.78763
    },
    {
      "id": "_8",
      "label": "Франше Д'Епереа",
      "longitude": 20.468232,
      "latitude": 44.790862
    },
    {
      "id": "_9",
      "label": "Делиградска",
      "longitude": 20.457594,
      "latitude": 44.795771
    },
    {
      "id": "_10",
      "label": "Мостар",
      "longitude": 20.450725,
      "latitude": 44.797789
    },
    {
      "id": "_11",
      "label": "Сава центар",
      "longitude": 20.431328,
      "latitude": 44.807647
    },
    {
      "id": "_12",
      "label": "Блок 25",
      "longitude": 20.424705,
      "latitude": 44.813542
    },
    {
      "id": "_13",
      "label": "Антифашистичке Борбе",
      "longitude": 20.424697,
      "latitude": 44.814842
    },
    {
      "id": "_14",
      "label": "Београдска Арена",
      "longitude": 20.420457,
      "latitude": 44.816798
    },
    {
      "id": "_15",
      "label": "Уметности булевар",
      "longitude": 20.413531,
      "latitude": 44.819963
    },
    {
      "id": "_16",
      "label": "ГО Нови Београд",
      "longitude": 20.412667,
      "latitude": 44.823377
    },
    {
      "id": "_17",
      "label": "Маршала Толбухина булевар",
      "longitude": 20.411664,
      "latitude": 44.829255
    },
    {
      "id": "_18",
      "label": "Џона Кенедија",
      "longitude": 20.409969,
      "latitude": 44.834214
    },
    {
      "id": "_19",
      "label": "Прве пруге ретензија",
      "longitude": 20.410514,
      "latitude": 44.836725
    },
    {
      "id": "_20",
      "label": "Пољопривредни факултет",
      "longitude": 20.412911,
      "latitude": 44.839425
    },
    {
      "id": "_21",
      "label": "Земун /пошта/",
      "longitude": 20.413413,
      "latitude": 44.842187
    },
    {
      "id": "_22",
      "label": "Бранка Радичевића трг",
      "longitude": 20.409701,
      "latitude": 44.845952
    },
    {
      "id": "_23",
      "label": "Наде Димић",
      "longitude": 20.402786,
      "latitude": 44.849187
    },
    {
      "id": "_24",
      "label": "Дунавска",
      "longitude": 20.397856,
      "latitude": 44.851003
    },
    {
      "id": "_25",
      "label": "Тршћанска",
      "longitude": 20.390582,
      "latitude": 44.853754
    },
    {
      "id": "_26",
      "label": "Филипа Вишњића",
      "longitude": 20.386784,
      "latitude": 44.855219
    },
    {
      "id": "_27",
      "label": "Руска",
      "longitude": 20.380977,
      "latitude": 44.857808
    },
    {
      "id": "_28",
      "label": "Земун /Горњи град/ ",
      "longitude": 20.378349,
      "latitude": 44.859251
    }
  ],
  "direction_b": [
    {
      "id": "_1",
      "label": "Земун /Горњи град/ ",
      "longitude": 20.378349,
      "latitude": 44.859251
    },
    {
      "id": "_2",
      "label": "Руска",
      "longitude": 20.38172,
      "latitude": 44.857304
    },
    {
      "id": "_3",
      "label": "Филипа Вишњића",
      "longitude": 20.387565,
      "latitude": 44.854709
    },
    {
      "id": "_4",
      "label": "Тршћанска",
      "longitude": 20.391693,
      "latitude": 44.853165
    },
    {
      "id": "_5",
      "label": "Дунавска",
      "longitude": 20.396757,
      "latitude": 44.851288
    },
    {
      "id": "_6",
      "label": "Наде Димић",
      "longitude": 20.402336,
      "latitude": 44.849214
    },
    {
      "id": "_7",
      "label": "Бранка Радичевића трг",
      "longitude": 20.408467,
      "latitude": 44.846397
    },
    {
      "id": "_8",
      "label": "РК Београд",
      "longitude": 20.411983,
      "latitude": 44.843533
    },
    {
      "id": "_9",
      "label": "Земун /пошта/",
      "longitude": 20.414234,
      "latitude": 44.840793
    },
    {
      "id": "_10",
      "label": "22 октобра",
      "longitude": 20.411257,
      "latitude": 44.837972
    },
    {
      "id": "_11",
      "label": "Џона Кенедија",
      "longitude": 20.409639,
      "latitude": 44.834083
    },
    {
      "id": "_12",
      "label": "Маршала Толбухина булевар",
      "longitude": 20.411053,
      "latitude": 44.829753
    },
    {
      "id": "_13",
      "label": "Архив",
      "longitude": 20.411997,
      "latitude": 44.827033
    },
    {
      "id": "_14",
      "label": "ГО Нови Београд",
      "longitude": 20.411814,
      "latitude": 44.823004
    },
    {
      "id": "_15",
      "label": "Црква Светог Димитрија",
      "longitude": 20.411455,
      "latitude": 44.82042
    },
    {
      "id": "_16",
      "label": "Уметности булевар",
      "longitude": 20.415355,
      "latitude": 44.818613
    },
    {
      "id": "_17",
      "label": "Београдска Арена",
      "longitude": 20.421588,
      "latitude": 44.815751
    },
    {
      "id": "_18",
      "label": "Блок 25",
      "longitude": 20.423659,
      "latitude": 44.812897
    },
    {
      "id": "_19",
      "label": "Сава центар",
      "longitude": 20.430957,
      "latitude": 44.80719
    },
    {
      "id": "_20",
      "label": "Мостар",
      "longitude": 20.450484,
      "latitude": 44.797568
    },
    {
      "id": "_21",
      "label": "Делиградска",
      "longitude": 20.457356,
      "latitude": 44.795314
    },
    {
      "id": "_22",
      "label": "Франше Д'Епереа",
      "longitude": 20.466416,
      "latitude": 44.791513
    },
    {
      "id": "_23",
      "label": "Јужни булевар",
      "longitude": 20.468363,
      "latitude": 44.791378
    },
    {
      "id": "_24",
      "label": "Стратимировићева",
      "longitude": 20.47549,
      "latitude": 44.787893
    },
    {
      "id": "_25",
      "label": "Душановац /Пошта/",
      "longitude": 20.479835,
      "latitude": 44.786396
    },
    {
      "id": "_26",
      "label": "Грчића Миленка",
      "longitude": 20.486645,
      "latitude": 44.784224
    },
    {
      "id": "_27",
      "label": "Дом здравља",
      "longitude": 20.491793,
      "latitude": 44.783916
    },
    {
      "id": "_28",
      "label": "Хотел Србија",
      "longitude": 20.496111,
      "latitude": 44.783944
    },
    {
      "id": "_29",
      "label": "Шумице",
      "longitude": 20.502264,
      "latitude": 44.783154
    },
    {
      "id": "_30",
      "label": "Петрињска",
      "longitude": 20.507095,
      "latitude": 44.782578
    },
    {
      "id": "_31",
      "label": "Коњарник",
      "longitude": 20.511129,
      "latitude": 44.78209
    },
    {
      "id": "_32",
      "label": "Коњарник",
      "longitude": 20.510957,
      "latitude": 44.782307
    }
  ]
}