{
  "direction_a": [
    {
      "id": "_1",
      "label": "Омладински Стадион",
      "longitude": 20.49003,
      "latitude": 44.81534
    },
    {
      "id": "_2",
      "label": "Омладински Стадион",
      "longitude": 20.490757,
      "latitude": 44.815357
    },
    {
      "id": "_3",
      "label": "Вука Врчевића",
      "longitude": 20.495446,
      "latitude": 44.817608
    },
    {
      "id": "_4",
      "label": "Војводе Мицка Крстића",
      "longitude": 20.501067,
      "latitude": 44.817644
    },
    {
      "id": "_5",
      "label": "Диљска",
      "longitude": 20.510724,
      "latitude": 44.817363
    },
    {
      "id": "_6",
      "label": "Пут за Аду Хују",
      "longitude": 20.51421,
      "latitude": 44.817418
    },
    {
      "id": "_7",
      "label": "Миријевски булевар",
      "longitude": 20.519572,
      "latitude": 44.81742
    },
    {
      "id": "_8",
      "label": "Роспи Ћуприја",
      "longitude": 20.522992,
      "latitude": 44.81764
    },
    {
      "id": "_9",
      "label": "Трудбеничка",
      "longitude": 20.52833,
      "latitude": 44.815671
    },
    {
      "id": "_10",
      "label": "Вишњичка Бања",
      "longitude": 20.532613,
      "latitude": 44.815601
    },
    {
      "id": "_11",
      "label": "Топлана",
      "longitude": 20.537261,
      "latitude": 44.814501
    },
    {
      "id": "_12",
      "label": "Ново Насеље",
      "longitude": 20.541577,
      "latitude": 44.813578
    },
    {
      "id": "_13",
      "label": "Лешће",
      "longitude": 20.543645,
      "latitude": 44.811662
    },
    {
      "id": "_14",
      "label": "Лешће /Улаз/",
      "longitude": 20.547754,
      "latitude": 44.810068
    },
    {
      "id": "_15",
      "label": "Српска Круна",
      "longitude": 20.552663,
      "latitude": 44.807648
    },
    {
      "id": "_16",
      "label": "Сланци /Улаз/",
      "longitude": 20.55701,
      "latitude": 44.806439
    },
    {
      "id": "_17",
      "label": "Сланци /Пекара/",
      "longitude": 20.561946,
      "latitude": 44.807133
    },
    {
      "id": "_18",
      "label": "Сланци /Изворска/",
      "longitude": 20.566648,
      "latitude": 44.80767
    },
    {
      "id": "_19",
      "label": "Сланци /Школа/",
      "longitude": 20.570647,
      "latitude": 44.808095
    },
    {
      "id": "_20",
      "label": "Ветеринарска станица",
      "longitude": 20.576875,
      "latitude": 44.809103
    },
    {
      "id": "_21",
      "label": "Теслина",
      "longitude": 20.58888,
      "latitude": 44.806309
    },
    {
      "id": "_22",
      "label": "Велико Село (Омладинска)",
      "longitude": 20.591635,
      "latitude": 44.807929
    },
    {
      "id": "_23",
      "label": "МЗ Велико Село",
      "longitude": 20.597745,
      "latitude": 44.810667
    },
    {
      "id": "_24",
      "label": "Велико Село",
      "longitude": 20.60142,
      "latitude": 44.812208
    }
  ],
  "direction_b": [
    {
      "id": "_1",
      "label": "Велико Село",
      "longitude": 20.60142,
      "latitude": 44.812208
    },
    {
      "id": "_2",
      "label": "МЗ Велико Село",
      "longitude": 20.597614,
      "latitude": 44.81072
    },
    {
      "id": "_3",
      "label": "Велико Село (Омладинска)",
      "longitude": 20.591496,
      "latitude": 44.807916
    },
    {
      "id": "_4",
      "label": "Теслина",
      "longitude": 20.588913,
      "latitude": 44.806387
    },
    {
      "id": "_5",
      "label": "Ветеринарска станица",
      "longitude": 20.57673,
      "latitude": 44.809126
    },
    {
      "id": "_6",
      "label": "Сланци /Школа/",
      "longitude": 20.570239,
      "latitude": 44.808106
    },
    {
      "id": "_7",
      "label": "Сланци /Изворска/",
      "longitude": 20.566141,
      "latitude": 44.807623
    },
    {
      "id": "_8",
      "label": "Сланци /Пекара/",
      "longitude": 20.5619,
      "latitude": 44.807228
    },
    {
      "id": "_9",
      "label": "Сланци /Улаз/",
      "longitude": 20.55672,
      "latitude": 44.806617
    },
    {
      "id": "_10",
      "label": "Српска Круна",
      "longitude": 20.55237,
      "latitude": 44.807776
    },
    {
      "id": "_11",
      "label": "Лешће /Улаз/",
      "longitude": 20.547223,
      "latitude": 44.810458
    },
    {
      "id": "_12",
      "label": "Лешће",
      "longitude": 20.542797,
      "latitude": 44.812315
    },
    {
      "id": "_13",
      "label": "Ново Насеље",
      "longitude": 20.541062,
      "latitude": 44.813928
    },
    {
      "id": "_14",
      "label": "Топлана",
      "longitude": 20.536575,
      "latitude": 44.814866
    },
    {
      "id": "_15",
      "label": "Вишњичка Бања",
      "longitude": 20.531983,
      "latitude": 44.815764
    },
    {
      "id": "_16",
      "label": "Трудбеничка",
      "longitude": 20.526962,
      "latitude": 44.8162
    },
    {
      "id": "_17",
      "label": "Роспи Ћуприја",
      "longitude": 20.521855,
      "latitude": 44.818011
    },
    {
      "id": "_18",
      "label": "Миријевски булевар",
      "longitude": 20.519438,
      "latitude": 44.817722
    },
    {
      "id": "_19",
      "label": "Пут за Аду Хују",
      "longitude": 20.5141,
      "latitude": 44.81765
    },
    {
      "id": "_20",
      "label": "Диљска",
      "longitude": 20.509651,
      "latitude": 44.817677
    },
    {
      "id": "_21",
      "label": "Војводе Мицка Крстића",
      "longitude": 20.502926,
      "latitude": 44.817854
    },
    {
      "id": "_22",
      "label": "Вука Врчевића",
      "longitude": 20.496706,
      "latitude": 44.817951
    },
    {
      "id": "_23",
      "label": "Омладински Стадион",
      "longitude": 20.489658,
      "latitude": 44.81534
    },
    {
      "id": "_24",
      "label": "Омладински Стадион",
      "longitude": 20.49003,
      "latitude": 44.81534
    }
  ]
}