{
  "direction_a": [
    {
      "id": "_1",
      "label": "Дорћол /СРЦ Милалн Мушкатировић/",
      "longitude": 20.456226,
      "latitude": 44.829748
    },
    {
      "id": "_2",
      "label": "Браће Барух",
      "longitude": 20.456795,
      "latitude": 44.825091
    },
    {
      "id": "_3",
      "label": "Краља Петра",
      "longitude": 20.46018,
      "latitude": 44.823291
    },
    {
      "id": "_4",
      "label": "Дорћол /Кнегиње Љубице/",
      "longitude": 20.46335,
      "latitude": 44.82155
    },
    {
      "id": "_5",
      "label": "Душанова",
      "longitude": 20.465467,
      "latitude": 44.819568
    },
    {
      "id": "_6",
      "label": "Републике трг",
      "longitude": 20.46062,
      "latitude": 44.815713
    },
    {
      "id": "_7",
      "label": "Пионирски Парк",
      "longitude": 20.465024,
      "latitude": 44.810983
    },
    {
      "id": "_8",
      "label": "Ресавска",
      "longitude": 20.467983,
      "latitude": 44.809139
    },
    {
      "id": "_9",
      "label": "Ташмајдан",
      "longitude": 20.469168,
      "latitude": 44.808106
    },
    {
      "id": "_10",
      "label": "Цветни трг",
      "longitude": 20.466842,
      "latitude": 44.804872
    },
    {
      "id": "_11",
      "label": "Смиљанићева",
      "longitude": 20.470233,
      "latitude": 44.802771
    },
    {
      "id": "_12",
      "label": "ГО Врачар",
      "longitude": 20.473519,
      "latitude": 44.800763
    },
    {
      "id": "_13",
      "label": "Мачванска",
      "longitude": 20.473985,
      "latitude": 44.797783
    },
    {
      "id": "_14",
      "label": "Интернационалних Бригада",
      "longitude": 20.473642,
      "latitude": 44.794673
    },
    {
      "id": "_15",
      "label": "Неимар",
      "longitude": 20.473162,
      "latitude": 44.793972
    }
  ],
  "direction_b": [
    {
      "id": "_1",
      "label": "Неимар",
      "longitude": 20.473162,
      "latitude": 44.793972
    },
    {
      "id": "_2",
      "label": "Новопазарска",
      "longitude": 20.474085,
      "latitude": 44.797926
    },
    {
      "id": "_3",
      "label": "ГО Врачар",
      "longitude": 20.472953,
      "latitude": 44.80127
    },
    {
      "id": "_4",
      "label": "Смиљанићева",
      "longitude": 20.470018,
      "latitude": 44.80303
    },
    {
      "id": "_5",
      "label": "Цветни трг",
      "longitude": 20.467465,
      "latitude": 44.804579
    },
    {
      "id": "_6",
      "label": "Ташмајдан",
      "longitude": 20.4703,
      "latitude": 44.807302
    },
    {
      "id": "_7",
      "label": "Главна пошта",
      "longitude": 20.467218,
      "latitude": 44.809936
    },
    {
      "id": "_8",
      "label": "Пионирски Парк",
      "longitude": 20.464123,
      "latitude": 44.81206
    },
    {
      "id": "_9",
      "label": "Републике трг",
      "longitude": 20.460982,
      "latitude": 44.816274
    },
    {
      "id": "_10",
      "label": "Душанова",
      "longitude": 20.464745,
      "latitude": 44.818928
    },
    {
      "id": "_11",
      "label": "Дорћол /Кнегиње Љубице/",
      "longitude": 20.46408,
      "latitude": 44.821267
    },
    {
      "id": "_12",
      "label": "Краља Петра",
      "longitude": 20.460231,
      "latitude": 44.82334
    },
    {
      "id": "_13",
      "label": "Браће Барух",
      "longitude": 20.457018,
      "latitude": 44.825085
    },
    {
      "id": "_14",
      "label": "Солунска",
      "longitude": 20.456016,
      "latitude": 44.826849
    },
    {
      "id": "_15",
      "label": "Дорћол /СРЦ Милалн Мушкатировић/",
      "longitude": 20.455862,
      "latitude": 44.829841
    },
    {
      "id": "_16",
      "label": "Дорћол /СРЦ Милалн Мушкатировић/",
      "longitude": 20.456226,
      "latitude": 44.829748
    }
  ]
}