{
  "direction_a": [
    {
      "id": "_1",
      "label": "Дорћол /Дунавска/",
      "longitude": 20.46121,
      "latitude": 44.828109
    },
    {
      "id": "_2",
      "label": "Деспота Ђурђа",
      "longitude": 20.461693,
      "latitude": 44.826066
    },
    {
      "id": "_3",
      "label": "Краља Петра",
      "longitude": 20.460279,
      "latitude": 44.823157
    },
    {
      "id": "_4",
      "label": "Дорћол /Кнегиње Љубице/",
      "longitude": 20.463047,
      "latitude": 44.821661
    },
    {
      "id": "_5",
      "label": "Душанова",
      "longitude": 20.465345,
      "latitude": 44.819495
    },
    {
      "id": "_6",
      "label": "Републике трг",
      "longitude": 20.460425,
      "latitude": 44.815323
    },
    {
      "id": "_7",
      "label": "Теразије",
      "longitude": 20.460957,
      "latitude": 44.812833
    },
    {
      "id": "_8",
      "label": "Пионирски Парк",
      "longitude": 20.465054,
      "latitude": 44.810986
    },
    {
      "id": "_9",
      "label": "Ресавска",
      "longitude": 20.467976,
      "latitude": 44.809155
    },
    {
      "id": "_10",
      "label": "Правни факултет",
      "longitude": 20.472006,
      "latitude": 44.806772
    },
    {
      "id": "_11",
      "label": "Технички Факултет",
      "longitude": 20.476529,
      "latitude": 44.804842
    },
    {
      "id": "_12",
      "label": "ГО Врачар",
      "longitude": 20.475165,
      "latitude": 44.801641
    },
    {
      "id": "_13",
      "label": "Пијаца Каленић",
      "longitude": 20.476436,
      "latitude": 44.799011
    },
    {
      "id": "_14",
      "label": "Јужни булевар",
      "longitude": 20.478176,
      "latitude": 44.793874
    },
    {
      "id": "_15",
      "label": "Тетовска",
      "longitude": 20.48059,
      "latitude": 44.789385
    },
    {
      "id": "_16",
      "label": "Душановац /Пошта/",
      "longitude": 20.482228,
      "latitude": 44.785937
    },
    {
      "id": "_17",
      "label": "Хусова",
      "longitude": 20.480568,
      "latitude": 44.78392
    },
    {
      "id": "_18",
      "label": "Универзитет Сингидунум",
      "longitude": 20.477265,
      "latitude": 44.782598
    },
    {
      "id": "_19",
      "label": "Витановачка",
      "longitude": 20.479255,
      "latitude": 44.779612
    },
    {
      "id": "_20",
      "label": "Бјеловарска",
      "longitude": 20.481482,
      "latitude": 44.77512
    },
    {
      "id": "_21",
      "label": "Дарвинова",
      "longitude": 20.482222,
      "latitude": 44.772329
    },
    {
      "id": "_22",
      "label": "Јована Бијелића",
      "longitude": 20.493195,
      "latitude": 44.77166
    },
    {
      "id": "_23",
      "label": "Драгице Кончар 1",
      "longitude": 20.496242,
      "latitude": 44.769919
    },
    {
      "id": "_24",
      "label": "Драгице Кончар",
      "longitude": 20.499685,
      "latitude": 44.768158
    },
    {
      "id": "_25",
      "label": "Насеље Браће Јерковић",
      "longitude": 20.499788,
      "latitude": 44.765096
    }
  ],
  "direction_b": [
    {
      "id": "_1",
      "label": "Насеље Браће Јерковић",
      "longitude": 20.500303,
      "latitude": 44.765235
    },
    {
      "id": "_2",
      "label": "Драгице Кончар",
      "longitude": 20.499497,
      "latitude": 44.768385
    },
    {
      "id": "_3",
      "label": "Драгице Кончар 1",
      "longitude": 20.496697,
      "latitude": 44.76978
    },
    {
      "id": "_4",
      "label": "Јована Бијелића",
      "longitude": 20.493311,
      "latitude": 44.771883
    },
    {
      "id": "_5",
      "label": "Дарвинова",
      "longitude": 20.482327,
      "latitude": 44.772721
    },
    {
      "id": "_6",
      "label": "Бјеловарска",
      "longitude": 20.481327,
      "latitude": 44.775906
    },
    {
      "id": "_7",
      "label": "Витановачка",
      "longitude": 20.479826,
      "latitude": 44.779011
    },
    {
      "id": "_8",
      "label": "Универзитет Сингидунум",
      "longitude": 20.477296,
      "latitude": 44.78279
    },
    {
      "id": "_9",
      "label": "Хусова",
      "longitude": 20.479768,
      "latitude": 44.783906
    },
    {
      "id": "_10",
      "label": "Душановац /Пошта/",
      "longitude": 20.482422,
      "latitude": 44.785912
    },
    {
      "id": "_11",
      "label": "Тетовска",
      "longitude": 20.480064,
      "latitude": 44.79011
    },
    {
      "id": "_12",
      "label": "Јужни булевар",
      "longitude": 20.478396,
      "latitude": 44.793016
    },
    {
      "id": "_13",
      "label": "Пијаца Каленић",
      "longitude": 20.476956,
      "latitude": 44.800796
    },
    {
      "id": "_14",
      "label": "Технички Факултет",
      "longitude": 20.476439,
      "latitude": 44.805195
    },
    {
      "id": "_15",
      "label": "Правни факултет",
      "longitude": 20.472328,
      "latitude": 44.806937
    },
    {
      "id": "_16",
      "label": "Главна пошта",
      "longitude": 20.467193,
      "latitude": 44.809968
    },
    {
      "id": "_17",
      "label": "Теразије",
      "longitude": 20.461159,
      "latitude": 44.813172
    },
    {
      "id": "_18",
      "label": "Републике трг",
      "longitude": 20.46066,
      "latitude": 44.815468
    },
    {
      "id": "_19",
      "label": "Душанова",
      "longitude": 20.46469,
      "latitude": 44.818927
    },
    {
      "id": "_20",
      "label": "Дорћол /Кнегиње Љубице/",
      "longitude": 20.464324,
      "latitude": 44.821208
    },
    {
      "id": "_21",
      "label": "Краља Петра",
      "longitude": 20.460245,
      "latitude": 44.82341
    },
    {
      "id": "_22",
      "label": "Браће Барух",
      "longitude": 20.45714,
      "latitude": 44.825098
    },
    {
      "id": "_23",
      "label": "Солунска",
      "longitude": 20.456064,
      "latitude": 44.8269
    },
    {
      "id": "_24",
      "label": "Дорћол /Дунавска/",
      "longitude": 20.46121,
      "latitude": 44.828109
    }
  ]
}