{
  "direction_a": [
    {
      "id": "_1",
      "label": "Дорћол /Дунавска/",
      "longitude": 20.461207,
      "latitude": 44.828115
    },
    {
      "id": "_2",
      "label": "Деспота Ђурђа",
      "longitude": 20.4617,
      "latitude": 44.826089
    },
    {
      "id": "_3",
      "label": "Краља Петра",
      "longitude": 20.46018,
      "latitude": 44.823291
    },
    {
      "id": "_4",
      "label": "Дорћол /Кнегиње Љубице/",
      "longitude": 20.46335,
      "latitude": 44.82155
    },
    {
      "id": "_5",
      "label": "Душанова",
      "longitude": 20.465467,
      "latitude": 44.819568
    },
    {
      "id": "_6",
      "label": "Републике трг",
      "longitude": 20.461814,
      "latitude": 44.816643
    },
    {
      "id": "_7",
      "label": "Пионирски Парк",
      "longitude": 20.465024,
      "latitude": 44.810983
    },
    {
      "id": "_8",
      "label": "Ресавска",
      "longitude": 20.467983,
      "latitude": 44.809139
    },
    {
      "id": "_9",
      "label": "Правни факултет",
      "longitude": 20.472006,
      "latitude": 44.806772
    },
    {
      "id": "_10",
      "label": "Технички Факултет",
      "longitude": 20.476373,
      "latitude": 44.804924
    },
    {
      "id": "_11",
      "label": "ГО Врачар",
      "longitude": 20.475117,
      "latitude": 44.801641
    },
    {
      "id": "_12",
      "label": "Пијаца Каленић",
      "longitude": 20.476402,
      "latitude": 44.799045
    },
    {
      "id": "_13",
      "label": "Јужни булевар",
      "longitude": 20.478145,
      "latitude": 44.793874
    },
    {
      "id": "_14",
      "label": "Тетовска",
      "longitude": 20.480584,
      "latitude": 44.789385
    },
    {
      "id": "_15",
      "label": "Душановац /Пошта/",
      "longitude": 20.48226,
      "latitude": 44.786018
    },
    {
      "id": "_16",
      "label": "Мишка Јовановића",
      "longitude": 20.481809,
      "latitude": 44.782789
    },
    {
      "id": "_17",
      "label": "Пеке Павловића",
      "longitude": 20.486251,
      "latitude": 44.780923
    },
    {
      "id": "_18",
      "label": "Игњата Јоба",
      "longitude": 20.488756,
      "latitude": 44.776856
    },
    {
      "id": "_19",
      "label": "Централно Гробље",
      "longitude": 20.491707,
      "latitude": 44.774358
    },
    {
      "id": "_20",
      "label": "Јована Бијелића",
      "longitude": 20.493177,
      "latitude": 44.77166
    },
    {
      "id": "_21",
      "label": "Драгице Кончар 1",
      "longitude": 20.496207,
      "latitude": 44.769918
    },
    {
      "id": "_22",
      "label": "Драгице Кончар",
      "longitude": 20.499716,
      "latitude": 44.768185
    },
    {
      "id": "_23",
      "label": "Насеље Браће Јерковић",
      "longitude": 20.499777,
      "latitude": 44.765096
    }
  ],
  "direction_b": [
    {
      "id": "_1",
      "label": "Насеље Браће Јерковић",
      "longitude": 20.500303,
      "latitude": 44.765235
    },
    {
      "id": "_2",
      "label": "Драгице Кончар",
      "longitude": 20.499445,
      "latitude": 44.768394
    },
    {
      "id": "_3",
      "label": "Драгице Кончар 1",
      "longitude": 20.496685,
      "latitude": 44.769752
    },
    {
      "id": "_4",
      "label": "Јована Бијелића",
      "longitude": 20.493279,
      "latitude": 44.771866
    },
    {
      "id": "_5",
      "label": "Централно Гробље",
      "longitude": 20.490907,
      "latitude": 44.775206
    },
    {
      "id": "_6",
      "label": "Игњата Јоба",
      "longitude": 20.488381,
      "latitude": 44.777517
    },
    {
      "id": "_7",
      "label": "Пеке Павловића",
      "longitude": 20.485967,
      "latitude": 44.781091
    },
    {
      "id": "_8",
      "label": "Мишка Јовановића",
      "longitude": 20.482421,
      "latitude": 44.782425
    },
    {
      "id": "_9",
      "label": "Душановац /Пошта/",
      "longitude": 20.482303,
      "latitude": 44.785789
    },
    {
      "id": "_10",
      "label": "Тетовска",
      "longitude": 20.480066,
      "latitude": 44.790061
    },
    {
      "id": "_11",
      "label": "Јужни булевар",
      "longitude": 20.478347,
      "latitude": 44.793137
    },
    {
      "id": "_12",
      "label": "Пијаца Каленић",
      "longitude": 20.476976,
      "latitude": 44.800784
    },
    {
      "id": "_13",
      "label": "Технички Факултет",
      "longitude": 20.47648,
      "latitude": 44.805093
    },
    {
      "id": "_14",
      "label": "Правни факултет",
      "longitude": 20.472172,
      "latitude": 44.806962
    },
    {
      "id": "_15",
      "label": "Главна пошта",
      "longitude": 20.467218,
      "latitude": 44.809936
    },
    {
      "id": "_16",
      "label": "Пионирски Парк",
      "longitude": 20.464123,
      "latitude": 44.81206
    },
    {
      "id": "_17",
      "label": "Дом Омладине",
      "longitude": 20.462535,
      "latitude": 44.815304
    },
    {
      "id": "_18",
      "label": "Републике трг",
      "longitude": 20.462179,
      "latitude": 44.81709
    },
    {
      "id": "_19",
      "label": "Душанова",
      "longitude": 20.464745,
      "latitude": 44.818928
    },
    {
      "id": "_20",
      "label": "Дорћол /Кнегиње Љубице/",
      "longitude": 20.46408,
      "latitude": 44.821267
    },
    {
      "id": "_21",
      "label": "Краља Петра",
      "longitude": 20.460231,
      "latitude": 44.82334
    },
    {
      "id": "_22",
      "label": "Браће Барух",
      "longitude": 20.457018,
      "latitude": 44.825085
    },
    {
      "id": "_23",
      "label": "Солунска",
      "longitude": 20.456016,
      "latitude": 44.826849
    },
    {
      "id": "_24",
      "label": "Дорћол /Дунавска/",
      "longitude": 20.461207,
      "latitude": 44.828115
    }
  ]
}