{
  "direction_a": [
    {
      "id": "_1",
      "label": "Дорћол /Дунавска/",
      "longitude": 20.46121,
      "latitude": 44.828109
    },
    {
      "id": "_2",
      "label": "Дунавска",
      "longitude": 20.469082,
      "latitude": 44.821831
    },
    {
      "id": "_3",
      "label": "Гундулићев Венац",
      "longitude": 20.469886,
      "latitude": 44.819941
    },
    {
      "id": "_4",
      "label": "Војводе Добрњца",
      "longitude": 20.474116,
      "latitude": 44.819449
    },
    {
      "id": "_5",
      "label": "Цвијићева",
      "longitude": 20.475941,
      "latitude": 44.817221
    },
    {
      "id": "_6",
      "label": "Џорџа Вашингтона",
      "longitude": 20.469985,
      "latitude": 44.816963
    },
    {
      "id": "_7",
      "label": "Скадарска",
      "longitude": 20.463735,
      "latitude": 44.816621
    },
    {
      "id": "_8",
      "label": "Републике трг",
      "longitude": 20.460425,
      "latitude": 44.815323
    },
    {
      "id": "_9",
      "label": "Теразије",
      "longitude": 20.460957,
      "latitude": 44.812833
    },
    {
      "id": "_10",
      "label": "Пионирски Парк",
      "longitude": 20.465054,
      "latitude": 44.810986
    },
    {
      "id": "_11",
      "label": "Ресавска",
      "longitude": 20.467976,
      "latitude": 44.809155
    },
    {
      "id": "_12",
      "label": "Правни факултет",
      "longitude": 20.472006,
      "latitude": 44.806772
    },
    {
      "id": "_13",
      "label": "Технички Факултет",
      "longitude": 20.476529,
      "latitude": 44.804842
    },
    {
      "id": "_14",
      "label": "ГО Врачар",
      "longitude": 20.475165,
      "latitude": 44.801641
    },
    {
      "id": "_15",
      "label": "Пијаца Каленић",
      "longitude": 20.476436,
      "latitude": 44.799011
    },
    {
      "id": "_16",
      "label": "Јужни булевар",
      "longitude": 20.478176,
      "latitude": 44.793874
    },
    {
      "id": "_17",
      "label": "Тетовска",
      "longitude": 20.48059,
      "latitude": 44.789385
    },
    {
      "id": "_18",
      "label": "Душановац /Пошта/",
      "longitude": 20.482228,
      "latitude": 44.785937
    },
    {
      "id": "_19",
      "label": "Мишка Јовановића",
      "longitude": 20.481835,
      "latitude": 44.782712
    },
    {
      "id": "_20",
      "label": "Пеке Павловића",
      "longitude": 20.48622,
      "latitude": 44.780932
    },
    {
      "id": "_21",
      "label": "Игњата Јоба",
      "longitude": 20.488756,
      "latitude": 44.776856
    },
    {
      "id": "_22",
      "label": "Централно Гробље",
      "longitude": 20.491692,
      "latitude": 44.774379
    },
    {
      "id": "_23",
      "label": "Јована Бијелића",
      "longitude": 20.493195,
      "latitude": 44.77166
    },
    {
      "id": "_24",
      "label": "Драгице Кончар 1",
      "longitude": 20.496242,
      "latitude": 44.769919
    },
    {
      "id": "_25",
      "label": "Драгице Кончар",
      "longitude": 20.499685,
      "latitude": 44.768158
    },
    {
      "id": "_26",
      "label": "Насеље Браће Јерковић",
      "longitude": 20.499788,
      "latitude": 44.765096
    }
  ],
  "direction_b": [
    {
      "id": "_1",
      "label": "Насеље Браће Јерковић",
      "longitude": 20.500303,
      "latitude": 44.765235
    },
    {
      "id": "_2",
      "label": "Драгице Кончар",
      "longitude": 20.499497,
      "latitude": 44.768385
    },
    {
      "id": "_3",
      "label": "Драгице Кончар 1",
      "longitude": 20.496697,
      "latitude": 44.76978
    },
    {
      "id": "_4",
      "label": "Јована Бијелића",
      "longitude": 20.493311,
      "latitude": 44.771883
    },
    {
      "id": "_5",
      "label": "Централно Гробље",
      "longitude": 20.490973,
      "latitude": 44.775193
    },
    {
      "id": "_6",
      "label": "Игњата Јоба",
      "longitude": 20.488401,
      "latitude": 44.777518
    },
    {
      "id": "_7",
      "label": "Пеке Павловића",
      "longitude": 20.485967,
      "latitude": 44.781091
    },
    {
      "id": "_8",
      "label": "Мишка Јовановића",
      "longitude": 20.482438,
      "latitude": 44.782439
    },
    {
      "id": "_9",
      "label": "Душановац /Пошта/",
      "longitude": 20.482422,
      "latitude": 44.785912
    },
    {
      "id": "_10",
      "label": "Тетовска",
      "longitude": 20.480064,
      "latitude": 44.79011
    },
    {
      "id": "_11",
      "label": "Јужни булевар",
      "longitude": 20.478396,
      "latitude": 44.793016
    },
    {
      "id": "_12",
      "label": "Пијаца Каленић",
      "longitude": 20.476956,
      "latitude": 44.800796
    },
    {
      "id": "_13",
      "label": "Технички Факултет",
      "longitude": 20.476439,
      "latitude": 44.805195
    },
    {
      "id": "_14",
      "label": "Правни факултет",
      "longitude": 20.472328,
      "latitude": 44.806937
    },
    {
      "id": "_15",
      "label": "Главна пошта",
      "longitude": 20.467193,
      "latitude": 44.809968
    },
    {
      "id": "_16",
      "label": "Теразије",
      "longitude": 20.461159,
      "latitude": 44.813172
    },
    {
      "id": "_17",
      "label": "Републике трг",
      "longitude": 20.46066,
      "latitude": 44.815468
    },
    {
      "id": "_18",
      "label": "Републике трг",
      "longitude": 20.461632,
      "latitude": 44.816664
    },
    {
      "id": "_19",
      "label": "Џорџа Вашингтона",
      "longitude": 20.469867,
      "latitude": 44.816793
    },
    {
      "id": "_20",
      "label": "Цвијићева",
      "longitude": 20.47687,
      "latitude": 44.817535
    },
    {
      "id": "_21",
      "label": "Војводе Добрњца",
      "longitude": 20.472779,
      "latitude": 44.819744
    },
    {
      "id": "_22",
      "label": "Гундулићев Венац",
      "longitude": 20.470495,
      "latitude": 44.820007
    },
    {
      "id": "_23",
      "label": "Дунавска",
      "longitude": 20.468373,
      "latitude": 44.821221
    },
    {
      "id": "_24",
      "label": "Деспота Ђурђа",
      "longitude": 20.461693,
      "latitude": 44.826066
    },
    {
      "id": "_25",
      "label": "Браће Барух",
      "longitude": 20.45714,
      "latitude": 44.825098
    },
    {
      "id": "_26",
      "label": "Солунска",
      "longitude": 20.456064,
      "latitude": 44.8269
    },
    {
      "id": "_27",
      "label": "Дорћол /Дунавска/",
      "longitude": 20.46121,
      "latitude": 44.828109
    }
  ]
}