{
  "direction_a": [
    {
      "id": "_1",
      "label": "Блок 20",
      "longitude": 20.438076,
      "latitude": 44.811264
    },
    {
      "id": "_2",
      "label": "Блок 21",
      "longitude": 20.43383,
      "latitude": 44.813582
    },
    {
      "id": "_3",
      "label": "Бранков мост",
      "longitude": 20.452112,
      "latitude": 44.81492
    },
    {
      "id": "_4",
      "label": "Зелени венац",
      "longitude": 20.456843,
      "latitude": 44.814282
    },
    {
      "id": "_5",
      "label": "Дом Омладине",
      "longitude": 20.462535,
      "latitude": 44.815304
    },
    {
      "id": "_6",
      "label": "Џорџа Вашингтона",
      "longitude": 20.469852,
      "latitude": 44.816762
    },
    {
      "id": "_7",
      "label": "Цвијићева",
      "longitude": 20.47747,
      "latitude": 44.817106
    },
    {
      "id": "_8",
      "label": "Центар за Културу Влада Дивљан",
      "longitude": 20.483124,
      "latitude": 44.817372
    },
    {
      "id": "_9",
      "label": "Омладински Стадион",
      "longitude": 20.490757,
      "latitude": 44.815357
    },
    {
      "id": "_10",
      "label": "Генерала Арачића",
      "longitude": 20.497254,
      "latitude": 44.813811
    },
    {
      "id": "_11",
      "label": "Маријане Грегоран",
      "longitude": 20.500097,
      "latitude": 44.813357
    },
    {
      "id": "_12",
      "label": "Астрономска",
      "longitude": 20.513771,
      "latitude": 44.808109
    },
    {
      "id": "_13",
      "label": "Ћалије",
      "longitude": 20.517201,
      "latitude": 44.805483
    },
    {
      "id": "_14",
      "label": "Симе Тројановића",
      "longitude": 20.519438,
      "latitude": 44.801987
    },
    {
      "id": "_15",
      "label": "Николе Доксата",
      "longitude": 20.52093,
      "latitude": 44.799533
    },
    {
      "id": "_16",
      "label": "Босутска",
      "longitude": 20.521955,
      "latitude": 44.796663
    },
    {
      "id": "_17",
      "label": "Ладне Воде",
      "longitude": 20.523502,
      "latitude": 44.794346
    },
    {
      "id": "_18",
      "label": "Витезова Карађорђеве Звезде",
      "longitude": 20.524457,
      "latitude": 44.792655
    },
    {
      "id": "_19",
      "label": "Селиште",
      "longitude": 20.527516,
      "latitude": 44.790264
    },
    {
      "id": "_20",
      "label": "Стојчино Брдо",
      "longitude": 20.530843,
      "latitude": 44.789233
    },
    {
      "id": "_21",
      "label": "Миријевски Венац",
      "longitude": 20.533601,
      "latitude": 44.789429
    },
    {
      "id": "_22",
      "label": "Бранка Ћопића",
      "longitude": 20.536757,
      "latitude": 44.787445
    },
    {
      "id": "_23",
      "label": "Михаила Булгакова",
      "longitude": 20.540647,
      "latitude": 44.787212
    },
    {
      "id": "_24",
      "label": "Александра Белића",
      "longitude": 20.544253,
      "latitude": 44.788455
    },
    {
      "id": "_25",
      "label": "Миливоја Перовића",
      "longitude": 20.546394,
      "latitude": 44.787737
    },
    {
      "id": "_26",
      "label": "Миријево 4",
      "longitude": 20.545718,
      "latitude": 44.786261
    }
  ],
  "direction_b": [
    {
      "id": "_1",
      "label": "Миријево 4",
      "longitude": 20.545718,
      "latitude": 44.786261
    },
    {
      "id": "_2",
      "label": "Миливоја Перовића",
      "longitude": 20.546182,
      "latitude": 44.788394
    },
    {
      "id": "_3",
      "label": "Александра Белића",
      "longitude": 20.543599,
      "latitude": 44.788745
    },
    {
      "id": "_4",
      "label": "Михаила Булгакова",
      "longitude": 20.540488,
      "latitude": 44.787406
    },
    {
      "id": "_5",
      "label": "Бранка Ћопића",
      "longitude": 20.537036,
      "latitude": 44.787626
    },
    {
      "id": "_6",
      "label": "Миријевски Венац",
      "longitude": 20.533356,
      "latitude": 44.789398
    },
    {
      "id": "_7",
      "label": "Стојчино Брдо",
      "longitude": 20.530175,
      "latitude": 44.7894
    },
    {
      "id": "_8",
      "label": "Селиште",
      "longitude": 20.527637,
      "latitude": 44.790556
    },
    {
      "id": "_9",
      "label": "Витезова Карађорђеве Звезде",
      "longitude": 20.525342,
      "latitude": 44.792528
    },
    {
      "id": "_10",
      "label": "Ладне Воде",
      "longitude": 20.523215,
      "latitude": 44.79516
    },
    {
      "id": "_11",
      "label": "Босутска",
      "longitude": 20.521935,
      "latitude": 44.797193
    },
    {
      "id": "_12",
      "label": "Николе Доксата",
      "longitude": 20.520562,
      "latitude": 44.800185
    },
    {
      "id": "_13",
      "label": "Симе Тројановића",
      "longitude": 20.51943,
      "latitude": 44.802323
    },
    {
      "id": "_14",
      "label": "Ћалије",
      "longitude": 20.51794,
      "latitude": 44.804826
    },
    {
      "id": "_15",
      "label": "Астрономска",
      "longitude": 20.514286,
      "latitude": 44.807923
    },
    {
      "id": "_16",
      "label": "Маријане Грегоран",
      "longitude": 20.500683,
      "latitude": 44.813356
    },
    {
      "id": "_17",
      "label": "Генерала Арачића",
      "longitude": 20.49654,
      "latitude": 44.813972
    },
    {
      "id": "_18",
      "label": "Омладински Стадион",
      "longitude": 20.491294,
      "latitude": 44.815392
    },
    {
      "id": "_19",
      "label": "Центар за Културу Влада Дивљан",
      "longitude": 20.484602,
      "latitude": 44.817696
    },
    {
      "id": "_20",
      "label": "Jована Авакумовића",
      "longitude": 20.479505,
      "latitude": 44.817357
    },
    {
      "id": "_21",
      "label": "Цвијићева",
      "longitude": 20.475976,
      "latitude": 44.817205
    },
    {
      "id": "_22",
      "label": "Џорџа Вашингтона",
      "longitude": 20.470002,
      "latitude": 44.816959
    },
    {
      "id": "_23",
      "label": "Скадарска",
      "longitude": 20.463938,
      "latitude": 44.8166
    },
    {
      "id": "_24",
      "label": "Зелени венац",
      "longitude": 20.457047,
      "latitude": 44.814461
    },
    {
      "id": "_25",
      "label": "Бранков мост",
      "longitude": 20.452359,
      "latitude": 44.815207
    },
    {
      "id": "_26",
      "label": "Шест Каплара",
      "longitude": 20.435174,
      "latitude": 44.815521
    },
    {
      "id": "_27",
      "label": "Блок 20",
      "longitude": 20.438076,
      "latitude": 44.811264
    }
  ]
}