{
  "direction_a": [
    {
      "id": "_1",
      "label": "Пристаниште",
      "longitude": 20.449357,
      "latitude": 44.819292
    },
    {
      "id": "_2",
      "label": "Калемегдан",
      "longitude": 20.454006,
      "latitude": 44.820787
    },
    {
      "id": "_3",
      "label": "Браће Барух",
      "longitude": 20.456822,
      "latitude": 44.824999
    },
    {
      "id": "_4",
      "label": "Краља Петра",
      "longitude": 20.45955,
      "latitude": 44.82355
    },
    {
      "id": "_5",
      "label": "Дорћол /Кнегиње Љубице/",
      "longitude": 20.464024,
      "latitude": 44.821113
    },
    {
      "id": "_6",
      "label": "Пијаца Скадарлија",
      "longitude": 20.466961,
      "latitude": 44.818236
    },
    {
      "id": "_7",
      "label": "Булевар Деспота Стефана",
      "longitude": 20.469294,
      "latitude": 44.816328
    },
    {
      "id": "_8",
      "label": "Таковска",
      "longitude": 20.471864,
      "latitude": 44.813574
    },
    {
      "id": "_9",
      "label": "Палилулска Пијаца",
      "longitude": 20.473878,
      "latitude": 44.811065
    },
    {
      "id": "_10",
      "label": "Машински Факултет",
      "longitude": 20.476888,
      "latitude": 44.807736
    },
    {
      "id": "_11",
      "label": "Вуков Споменик",
      "longitude": 20.478009,
      "latitude": 44.805605
    },
    {
      "id": "_12",
      "label": "Правни факултет",
      "longitude": 20.471207,
      "latitude": 44.806846
    },
    {
      "id": "_13",
      "label": "Славија трг",
      "longitude": 20.465837,
      "latitude": 44.802769
    },
    {
      "id": "_14",
      "label": "Савски трг",
      "longitude": 20.455744,
      "latitude": 44.807679
    },
    {
      "id": "_15",
      "label": "Палата Правде",
      "longitude": 20.453169,
      "latitude": 44.804496
    },
    {
      "id": "_16",
      "label": "Мостар",
      "longitude": 20.448636,
      "latitude": 44.79867
    },
    {
      "id": "_17",
      "label": "Сајам",
      "longitude": 20.441887,
      "latitude": 44.796304
    },
    {
      "id": "_18",
      "label": "Руска",
      "longitude": 20.437558,
      "latitude": 44.795149
    },
    {
      "id": "_19",
      "label": "Господарска Механа",
      "longitude": 20.43328,
      "latitude": 44.794296
    }
  ],
  "direction_b": [
    {
      "id": "_1",
      "label": "Господарска Механа",
      "longitude": 20.43328,
      "latitude": 44.794296
    },
    {
      "id": "_2",
      "label": "Руска",
      "longitude": 20.437687,
      "latitude": 44.795086
    },
    {
      "id": "_3",
      "label": "Сајам",
      "longitude": 20.442048,
      "latitude": 44.796238
    },
    {
      "id": "_4",
      "label": "Мостар",
      "longitude": 20.448732,
      "latitude": 44.798655
    },
    {
      "id": "_5",
      "label": "Палата Правде",
      "longitude": 20.4533,
      "latitude": 44.804555
    },
    {
      "id": "_6",
      "label": "Савски трг",
      "longitude": 20.455929,
      "latitude": 44.807723
    },
    {
      "id": "_7",
      "label": "Славија трг",
      "longitude": 20.467044,
      "latitude": 44.803262
    },
    {
      "id": "_8",
      "label": "Правни факултет",
      "longitude": 20.472505,
      "latitude": 44.806638
    },
    {
      "id": "_9",
      "label": "Вуков Споменик",
      "longitude": 20.478223,
      "latitude": 44.805447
    },
    {
      "id": "_10",
      "label": "Машински Факултет",
      "longitude": 20.47692,
      "latitude": 44.808022
    },
    {
      "id": "_11",
      "label": "Палилулска Пијаца",
      "longitude": 20.475018,
      "latitude": 44.81018
    },
    {
      "id": "_12",
      "label": "Таковска",
      "longitude": 20.472459,
      "latitude": 44.813177
    },
    {
      "id": "_13",
      "label": "Булевар Деспота Стефана",
      "longitude": 20.469364,
      "latitude": 44.816594
    },
    {
      "id": "_14",
      "label": "Пијаца Скадарлија",
      "longitude": 20.467073,
      "latitude": 44.818479
    },
    {
      "id": "_15",
      "label": "Дорћол /Кнегиње Љубице/",
      "longitude": 20.464067,
      "latitude": 44.821349
    },
    {
      "id": "_16",
      "label": "Краља Петра",
      "longitude": 20.460231,
      "latitude": 44.823407
    },
    {
      "id": "_17",
      "label": "Браће Барух",
      "longitude": 20.457163,
      "latitude": 44.825062
    },
    {
      "id": "_18",
      "label": "Калемегдан",
      "longitude": 20.453271,
      "latitude": 44.820312
    },
    {
      "id": "_19",
      "label": "Пристаниште",
      "longitude": 20.449357,
      "latitude": 44.819292
    }
  ]
}