{
  "direction_a": [
    {
      "id": "_1",
      "label": "Устаничка",
      "longitude": 20.517354,
      "latitude": 44.784805
    },
    {
      "id": "_2",
      "label": "Бајдина",
      "longitude": 20.525803,
      "latitude": 44.779366
    },
    {
      "id": "_3",
      "label": "Миријевска",
      "longitude": 20.529837,
      "latitude": 44.777681
    },
    {
      "id": "_4",
      "label": "ОШ Драгојло Дудић",
      "longitude": 20.534638,
      "latitude": 44.775339
    },
    {
      "id": "_5",
      "label": "Нине Кирсанове",
      "longitude": 20.547867,
      "latitude": 44.776329
    },
    {
      "id": "_6",
      "label": "Ново Насеље",
      "longitude": 20.554025,
      "latitude": 44.77244
    },
    {
      "id": "_7",
      "label": "Пут за Калуђерицу",
      "longitude": 20.560368,
      "latitude": 44.767665
    },
    {
      "id": "_8",
      "label": "Пут за Институт",
      "longitude": 20.56433,
      "latitude": 44.764495
    },
    {
      "id": "_9",
      "label": "Филипа Кљајића",
      "longitude": 20.566236,
      "latitude": 44.762051
    },
    {
      "id": "_10",
      "label": "Стара Калуђерица",
      "longitude": 20.569477,
      "latitude": 44.759334
    },
    {
      "id": "_11",
      "label": "Чардак",
      "longitude": 20.575888,
      "latitude": 44.756464
    },
    {
      "id": "_12",
      "label": "Хотел Радмиловац",
      "longitude": 20.580815,
      "latitude": 44.753676
    },
    {
      "id": "_13",
      "label": "Петра Кочића",
      "longitude": 20.58391,
      "latitude": 44.750878
    },
    {
      "id": "_14",
      "label": "Душана Петровића Шанета",
      "longitude": 20.587783,
      "latitude": 44.748382
    },
    {
      "id": "_15",
      "label": "Винча /Млин/",
      "longitude": 20.598303,
      "latitude": 44.745595
    },
    {
      "id": "_16",
      "label": "Болеч /Пумпа/",
      "longitude": 20.606661,
      "latitude": 44.741826
    },
    {
      "id": "_17",
      "label": "Болеч /Раскршће/",
      "longitude": 20.611487,
      "latitude": 44.735667
    },
    {
      "id": "_18",
      "label": "Баре",
      "longitude": 20.622395,
      "latitude": 44.727898
    },
    {
      "id": "_19",
      "label": "Хладњача ПКБ",
      "longitude": 20.630841,
      "latitude": 44.721891
    },
    {
      "id": "_20",
      "label": "Викендице",
      "longitude": 20.659959,
      "latitude": 44.713061
    },
    {
      "id": "_21",
      "label": "Плантажа",
      "longitude": 20.663247,
      "latitude": 44.705325
    },
    {
      "id": "_22",
      "label": "Бећарево Брдо",
      "longitude": 20.661592,
      "latitude": 44.700909
    },
    {
      "id": "_23",
      "label": "Пут за Заклопачу",
      "longitude": 20.669057,
      "latitude": 44.697439
    },
    {
      "id": "_24",
      "label": "Усек",
      "longitude": 20.683713,
      "latitude": 44.690474
    },
    {
      "id": "_25",
      "label": "Сува Чесма",
      "longitude": 20.693202,
      "latitude": 44.688414
    },
    {
      "id": "_26",
      "label": "Царева Главица",
      "longitude": 20.701396,
      "latitude": 44.686186
    },
    {
      "id": "_27",
      "label": "Грочица",
      "longitude": 20.704867,
      "latitude": 44.683623
    },
    {
      "id": "_28",
      "label": "АМД Гроцка",
      "longitude": 20.710191,
      "latitude": 44.680658
    },
    {
      "id": "_29",
      "label": "Гроцка (Васе Чарапића)",
      "longitude": 20.712573,
      "latitude": 44.678237
    },
    {
      "id": "_30",
      "label": "Гроцка (Шумадинска)",
      "longitude": 20.716095,
      "latitude": 44.673624
    },
    {
      "id": "_31",
      "label": "Гроцка (ЈА)",
      "longitude": 20.716787,
      "latitude": 44.669727
    },
    {
      "id": "_32",
      "label": "Гроцка (Космајска)",
      "longitude": 20.712807,
      "latitude": 44.667464
    },
    {
      "id": "_33",
      "label": "Гроцка (15. Маја)",
      "longitude": 20.709258,
      "latitude": 44.665054
    },
    {
      "id": "_34",
      "label": "Босанско Насеље",
      "longitude": 20.706844,
      "latitude": 44.66004
    },
    {
      "id": "_35",
      "label": "Гроцка (Бегаљички Мост)",
      "longitude": 20.706817,
      "latitude": 44.656037
    },
    {
      "id": "_36",
      "label": "Виногради",
      "longitude": 20.705519,
      "latitude": 44.65223
    },
    {
      "id": "_37",
      "label": "Бегаљица /Улаз/",
      "longitude": 20.70395,
      "latitude": 44.645189
    },
    {
      "id": "_38",
      "label": "Бориса Кидрича (Бегаљица)",
      "longitude": 20.704143,
      "latitude": 44.642913
    },
    {
      "id": "_39",
      "label": "Зеленгора",
      "longitude": 20.702413,
      "latitude": 44.638045
    },
    {
      "id": "_40",
      "label": "Револуције (Бегаљица)",
      "longitude": 20.698561,
      "latitude": 44.634264
    },
    {
      "id": "_41",
      "label": "Бегаљица",
      "longitude": 20.695206,
      "latitude": 44.632338
    }
  ],
  "direction_b": [
    {
      "id": "_1",
      "label": "Бегаљица",
      "longitude": 20.695206,
      "latitude": 44.632338
    },
    {
      "id": "_2",
      "label": "Револуције (Бегаљица)",
      "longitude": 20.698591,
      "latitude": 44.633996
    },
    {
      "id": "_3",
      "label": "Зеленгора",
      "longitude": 20.702805,
      "latitude": 44.638119
    },
    {
      "id": "_4",
      "label": "Бориса Кидрича (Бегаљица)",
      "longitude": 20.704409,
      "latitude": 44.64322
    },
    {
      "id": "_5",
      "label": "Бегаљица /Улаз/",
      "longitude": 20.704105,
      "latitude": 44.644809
    },
    {
      "id": "_6",
      "label": "Виногради",
      "longitude": 20.705693,
      "latitude": 44.651807
    },
    {
      "id": "_7",
      "label": "Гроцка (Бегаљички Мост)",
      "longitude": 20.707163,
      "latitude": 44.65635
    },
    {
      "id": "_8",
      "label": "Босанско Насеље",
      "longitude": 20.707102,
      "latitude": 44.660177
    },
    {
      "id": "_9",
      "label": "Гроцка (15. Маја)",
      "longitude": 20.708805,
      "latitude": 44.664415
    },
    {
      "id": "_10",
      "label": "Гроцка (Космајска)",
      "longitude": 20.713166,
      "latitude": 44.667524
    },
    {
      "id": "_11",
      "label": "Гроцка (ЈА)",
      "longitude": 20.717034,
      "latitude": 44.669742
    },
    {
      "id": "_12",
      "label": "Гроцка (Шумадинска)",
      "longitude": 20.71602,
      "latitude": 44.673805
    },
    {
      "id": "_13",
      "label": "Гроцка (Васе Чарапића)",
      "longitude": 20.712941,
      "latitude": 44.677844
    },
    {
      "id": "_14",
      "label": "АМД Гроцка",
      "longitude": 20.708923,
      "latitude": 44.681628
    },
    {
      "id": "_15",
      "label": "Грочица",
      "longitude": 20.705833,
      "latitude": 44.68324
    },
    {
      "id": "_16",
      "label": "Царева Главица",
      "longitude": 20.702335,
      "latitude": 44.685499
    },
    {
      "id": "_17",
      "label": "Сува Чесма",
      "longitude": 20.692628,
      "latitude": 44.68863
    },
    {
      "id": "_18",
      "label": "Усек",
      "longitude": 20.682793,
      "latitude": 44.691818
    },
    {
      "id": "_19",
      "label": "Пут за Заклопачу",
      "longitude": 20.669186,
      "latitude": 44.697586
    },
    {
      "id": "_20",
      "label": "Бећарево Брдо",
      "longitude": 20.661539,
      "latitude": 44.70112
    },
    {
      "id": "_21",
      "label": "Плантажа",
      "longitude": 20.663352,
      "latitude": 44.70559
    },
    {
      "id": "_22",
      "label": "Викендице",
      "longitude": 20.659667,
      "latitude": 44.713602
    },
    {
      "id": "_23",
      "label": "Хладњача ПКБ",
      "longitude": 20.631884,
      "latitude": 44.721977
    },
    {
      "id": "_24",
      "label": "Баре",
      "longitude": 20.621949,
      "latitude": 44.72846
    },
    {
      "id": "_25",
      "label": "Болеч /Раскршће/",
      "longitude": 20.611145,
      "latitude": 44.735941
    },
    {
      "id": "_26",
      "label": "Болеч /Пумпа/",
      "longitude": 20.605958,
      "latitude": 44.742811
    },
    {
      "id": "_27",
      "label": "Винча /Млин/",
      "longitude": 20.597219,
      "latitude": 44.746095
    },
    {
      "id": "_28",
      "label": "Душана Петровића Шанета",
      "longitude": 20.586806,
      "latitude": 44.748975
    },
    {
      "id": "_29",
      "label": "Петра Кочића",
      "longitude": 20.583688,
      "latitude": 44.751248
    },
    {
      "id": "_30",
      "label": "Хотел Радмиловац",
      "longitude": 20.580724,
      "latitude": 44.753966
    },
    {
      "id": "_31",
      "label": "Чардак",
      "longitude": 20.575606,
      "latitude": 44.756801
    },
    {
      "id": "_32",
      "label": "Стара Калуђерица",
      "longitude": 20.568699,
      "latitude": 44.760011
    },
    {
      "id": "_33",
      "label": "Филипа Кљајића",
      "longitude": 20.565838,
      "latitude": 44.762822
    },
    {
      "id": "_34",
      "label": "Пут за Институт",
      "longitude": 20.564201,
      "latitude": 44.764927
    },
    {
      "id": "_35",
      "label": "Пут за Калуђерицу",
      "longitude": 20.560472,
      "latitude": 44.767869
    },
    {
      "id": "_36",
      "label": "Ново Насеље",
      "longitude": 20.5534,
      "latitude": 44.772995
    },
    {
      "id": "_37",
      "label": "Нине Кирсанове",
      "longitude": 20.548206,
      "latitude": 44.776334
    },
    {
      "id": "_38",
      "label": "ОШ Драгојло Дудић",
      "longitude": 20.533581,
      "latitude": 44.776191
    },
    {
      "id": "_39",
      "label": "Миријевска",
      "longitude": 20.529051,
      "latitude": 44.778123
    },
    {
      "id": "_40",
      "label": "Бајдина",
      "longitude": 20.523534,
      "latitude": 44.781077
    },
    {
      "id": "_41",
      "label": "Устаничка",
      "longitude": 20.517338,
      "latitude": 44.784727
    },
    {
      "id": "_42",
      "label": "Устаничка",
      "longitude": 20.517354,
      "latitude": 44.784805
    }
  ]
}