{
  "direction_a": [
    {
      "id": "_1",
      "label": "Устаничка",
      "longitude": 20.517354,
      "latitude": 44.784805
    },
    {
      "id": "_2",
      "label": "Бајдина",
      "longitude": 20.525803,
      "latitude": 44.779366
    },
    {
      "id": "_3",
      "label": "Миријевска",
      "longitude": 20.529837,
      "latitude": 44.777681
    },
    {
      "id": "_4",
      "label": "ОШ Драгојло Дудић",
      "longitude": 20.534638,
      "latitude": 44.775339
    },
    {
      "id": "_5",
      "label": "Пиранделова",
      "longitude": 20.540488,
      "latitude": 44.777136
    },
    {
      "id": "_6",
      "label": "Нине Кирсанове",
      "longitude": 20.547867,
      "latitude": 44.776329
    },
    {
      "id": "_7",
      "label": "Ново Насеље",
      "longitude": 20.554025,
      "latitude": 44.77244
    },
    {
      "id": "_8",
      "label": "Пут за Калуђерицу",
      "longitude": 20.560368,
      "latitude": 44.767665
    },
    {
      "id": "_9",
      "label": "Пут за Институт",
      "longitude": 20.56433,
      "latitude": 44.764495
    },
    {
      "id": "_10",
      "label": "Филипа Кљајића",
      "longitude": 20.566236,
      "latitude": 44.762051
    },
    {
      "id": "_11",
      "label": "Стара Калуђерица",
      "longitude": 20.569477,
      "latitude": 44.759334
    },
    {
      "id": "_12",
      "label": "Чардак",
      "longitude": 20.575888,
      "latitude": 44.756464
    },
    {
      "id": "_13",
      "label": "Хотел Радмиловац",
      "longitude": 20.580815,
      "latitude": 44.753676
    },
    {
      "id": "_14",
      "label": "Петра Кочића",
      "longitude": 20.58391,
      "latitude": 44.750878
    },
    {
      "id": "_15",
      "label": "Душана Петровића Шанета",
      "longitude": 20.587783,
      "latitude": 44.748382
    },
    {
      "id": "_16",
      "label": "Винча /Млин/",
      "longitude": 20.598303,
      "latitude": 44.745595
    },
    {
      "id": "_17",
      "label": "Складиште Боја",
      "longitude": 20.594165,
      "latitude": 44.739304
    },
    {
      "id": "_18",
      "label": "Електродистрибуција",
      "longitude": 20.589052,
      "latitude": 44.734773
    },
    {
      "id": "_19",
      "label": "Стари пут за Болеч",
      "longitude": 20.5839,
      "latitude": 44.73025
    },
    {
      "id": "_20",
      "label": "Лештане /Улаз/",
      "longitude": 20.57585,
      "latitude": 44.72839
    },
    {
      "id": "_21",
      "label": "Лештане",
      "longitude": 20.575399,
      "latitude": 44.730485
    },
    {
      "id": "_22",
      "label": "Лештане /Излаз/",
      "longitude": 20.575751,
      "latitude": 44.728056
    },
    {
      "id": "_23",
      "label": "Бубањ Поток",
      "longitude": 20.546976,
      "latitude": 44.736628
    }
  ],
  "direction_b": [
    {
      "id": "_1",
      "label": "Бубањ Поток",
      "longitude": 20.546976,
      "latitude": 44.736628
    },
    {
      "id": "_2",
      "label": "Лештане /Улаз/",
      "longitude": 20.57585,
      "latitude": 44.72839
    },
    {
      "id": "_3",
      "label": "Лештане",
      "longitude": 20.575399,
      "latitude": 44.730485
    },
    {
      "id": "_4",
      "label": "Лештане /Излаз/",
      "longitude": 20.575751,
      "latitude": 44.728056
    },
    {
      "id": "_5",
      "label": "Стари пут за Болеч",
      "longitude": 20.584486,
      "latitude": 44.730623
    },
    {
      "id": "_6",
      "label": "Електродистрибуција",
      "longitude": 20.589543,
      "latitude": 44.73507
    },
    {
      "id": "_7",
      "label": "Складиште Боја",
      "longitude": 20.594061,
      "latitude": 44.739057
    },
    {
      "id": "_8",
      "label": "Винча /Млин/",
      "longitude": 20.597219,
      "latitude": 44.746095
    },
    {
      "id": "_9",
      "label": "Душана Петровића Шанета",
      "longitude": 20.586806,
      "latitude": 44.748975
    },
    {
      "id": "_10",
      "label": "Петра Кочића",
      "longitude": 20.583688,
      "latitude": 44.751248
    },
    {
      "id": "_11",
      "label": "Хотел Радмиловац",
      "longitude": 20.580724,
      "latitude": 44.753966
    },
    {
      "id": "_12",
      "label": "Чардак",
      "longitude": 20.575606,
      "latitude": 44.756801
    },
    {
      "id": "_13",
      "label": "Стара Калуђерица",
      "longitude": 20.568699,
      "latitude": 44.760011
    },
    {
      "id": "_14",
      "label": "Филипа Кљајића",
      "longitude": 20.565838,
      "latitude": 44.762822
    },
    {
      "id": "_15",
      "label": "Пут за Институт",
      "longitude": 20.564201,
      "latitude": 44.764927
    },
    {
      "id": "_16",
      "label": "Пут за Калуђерицу",
      "longitude": 20.560472,
      "latitude": 44.767869
    },
    {
      "id": "_17",
      "label": "Ново Насеље",
      "longitude": 20.5534,
      "latitude": 44.772995
    },
    {
      "id": "_18",
      "label": "Нине Кирсанове",
      "longitude": 20.548206,
      "latitude": 44.776334
    },
    {
      "id": "_19",
      "label": "Пиранделова",
      "longitude": 20.539289,
      "latitude": 44.776858
    },
    {
      "id": "_20",
      "label": "ОШ Драгојло Дудић",
      "longitude": 20.533581,
      "latitude": 44.776191
    },
    {
      "id": "_21",
      "label": "Миријевска",
      "longitude": 20.529051,
      "latitude": 44.778123
    },
    {
      "id": "_22",
      "label": "Бајдина",
      "longitude": 20.523534,
      "latitude": 44.781077
    },
    {
      "id": "_23",
      "label": "Устаничка",
      "longitude": 20.517338,
      "latitude": 44.784727
    },
    {
      "id": "_24",
      "label": "Устаничка",
      "longitude": 20.517354,
      "latitude": 44.784805
    }
  ]
}