{
  "direction_a": [
    {
      "id": "_1",
      "label": "Топчидерско Брдо /Сењак/",
      "longitude": 20.442898,
      "latitude": 44.79568
    },
    {
      "id": "_2",
      "label": "Војислава Вучковића",
      "longitude": 20.441828,
      "latitude": 44.792684
    },
    {
      "id": "_3",
      "label": "Васе Пелагића",
      "longitude": 20.440817,
      "latitude": 44.78878
    },
    {
      "id": "_4",
      "label": "Топчидерска Звезда",
      "longitude": 20.444092,
      "latitude": 44.788772
    },
    {
      "id": "_5",
      "label": "Железничка станица Београд Центар",
      "longitude": 20.453448,
      "latitude": 44.792888
    },
    {
      "id": "_6",
      "label": "Гучевска",
      "longitude": 20.458013,
      "latitude": 44.792537
    },
    {
      "id": "_7",
      "label": "Кнеза Алекстандра Карађорђевића булевар",
      "longitude": 20.45609,
      "latitude": 44.790063
    },
    {
      "id": "_8",
      "label": "Стадион Партизан",
      "longitude": 20.457399,
      "latitude": 44.786338
    },
    {
      "id": "_9",
      "label": "Педагошка академија",
      "longitude": 20.457924,
      "latitude": 44.781816
    },
    {
      "id": "_10",
      "label": "Драгише Мишовић болница",
      "longitude": 20.458083,
      "latitude": 44.777662
    },
    {
      "id": "_11",
      "label": "Паје Адамова",
      "longitude": 20.462581,
      "latitude": 44.772754
    },
    {
      "id": "_12",
      "label": "Бањица",
      "longitude": 20.465998,
      "latitude": 44.769389
    },
    {
      "id": "_13",
      "label": "Дедиње Ортопедска болница",
      "longitude": 20.463769,
      "latitude": 44.766321
    },
    {
      "id": "_14",
      "label": "Милоја Ђака",
      "longitude": 20.459286,
      "latitude": 44.764318
    },
    {
      "id": "_15",
      "label": "Омладинска",
      "longitude": 20.458635,
      "latitude": 44.768063
    },
    {
      "id": "_16",
      "label": "Пивљанина Баје",
      "longitude": 20.4558,
      "latitude": 44.769465
    },
    {
      "id": "_17",
      "label": "Пивљанина Баје",
      "longitude": 20.454403,
      "latitude": 44.765867
    },
    {
      "id": "_18",
      "label": "Пивљанина Баје 1",
      "longitude": 20.453281,
      "latitude": 44.761497
    },
    {
      "id": "_19",
      "label": "Милана Благојевића Шпанца",
      "longitude": 20.45238,
      "latitude": 44.757928
    },
    {
      "id": "_20",
      "label": "Пере Велимировића",
      "longitude": 20.460102,
      "latitude": 44.757166
    }
  ],
  "direction_b": [
    {
      "id": "_1",
      "label": "Пере Велимировића",
      "longitude": 20.459974,
      "latitude": 44.757808
    },
    {
      "id": "_2",
      "label": "Милана Благојевића Шпанца",
      "longitude": 20.45175,
      "latitude": 44.758069
    },
    {
      "id": "_3",
      "label": "Пивљанина Баје 1",
      "longitude": 20.452943,
      "latitude": 44.760487
    },
    {
      "id": "_4",
      "label": "Пивљанина Баје",
      "longitude": 20.454513,
      "latitude": 44.765791
    },
    {
      "id": "_5",
      "label": "Пивљанина Баје",
      "longitude": 20.455331,
      "latitude": 44.769537
    },
    {
      "id": "_6",
      "label": "Омладинска",
      "longitude": 20.458536,
      "latitude": 44.768019
    },
    {
      "id": "_7",
      "label": "Милоја Ђака",
      "longitude": 20.460169,
      "latitude": 44.763858
    },
    {
      "id": "_8",
      "label": "Дедиње Ортопедска болница",
      "longitude": 20.464077,
      "latitude": 44.766334
    },
    {
      "id": "_9",
      "label": "Бањица",
      "longitude": 20.465738,
      "latitude": 44.769939
    },
    {
      "id": "_10",
      "label": "Паје Адамова",
      "longitude": 20.462267,
      "latitude": 44.773346
    },
    {
      "id": "_11",
      "label": "Драгише Мишовић болница",
      "longitude": 20.458482,
      "latitude": 44.777658
    },
    {
      "id": "_12",
      "label": "Педагошка академија",
      "longitude": 20.457978,
      "latitude": 44.782669
    },
    {
      "id": "_13",
      "label": "Стадион Партизан",
      "longitude": 20.457656,
      "latitude": 44.785889
    },
    {
      "id": "_14",
      "label": "Кнеза Алекстандра Карађорђевића булевар",
      "longitude": 20.455997,
      "latitude": 44.789861
    },
    {
      "id": "_15",
      "label": "Гучевска",
      "longitude": 20.458013,
      "latitude": 44.792537
    },
    {
      "id": "_16",
      "label": "Железничка станица Београд Центар",
      "longitude": 20.4526,
      "latitude": 44.793413
    },
    {
      "id": "_17",
      "label": "Козјачка",
      "longitude": 20.447823,
      "latitude": 44.793773
    },
    {
      "id": "_18",
      "label": "Топчидерска Звезда",
      "longitude": 20.443961,
      "latitude": 44.78941
    },
    {
      "id": "_19",
      "label": "Васе Пелагића",
      "longitude": 20.440924,
      "latitude": 44.788976
    },
    {
      "id": "_20",
      "label": "Војислава Вучковића",
      "longitude": 20.441472,
      "latitude": 44.79174
    },
    {
      "id": "_21",
      "label": "Сењачка",
      "longitude": 20.442541,
      "latitude": 44.794279
    },
    {
      "id": "_22",
      "label": "Топчидерско Брдо /Сењак/",
      "longitude": 20.442898,
      "latitude": 44.79568
    }
  ]
}