{
  "direction_a": [
    {
      "id": "_1",
      "label": "Железничка станица Београд Центар",
      "longitude": 20.453448,
      "latitude": 44.792888
    },
    {
      "id": "_2",
      "label": "Гучевска",
      "longitude": 20.458013,
      "latitude": 44.792537
    },
    {
      "id": "_3",
      "label": "Кнеза Алекстандра Карађорђевића булевар",
      "longitude": 20.45609,
      "latitude": 44.790063
    },
    {
      "id": "_4",
      "label": "Трг Ослобођења",
      "longitude": 20.466279,
      "latitude": 44.788102
    },
    {
      "id": "_5",
      "label": "Франше Д'Епереа",
      "longitude": 20.466738,
      "latitude": 44.792674
    },
    {
      "id": "_6",
      "label": "Карађорђев парк",
      "longitude": 20.465713,
      "latitude": 44.798107
    },
    {
      "id": "_7",
      "label": "Трг Славија /Булевар Ослобођења/",
      "longitude": 20.466314,
      "latitude": 44.801565
    },
    {
      "id": "_8",
      "label": "Трг Славија /Немањина/",
      "longitude": 20.464665,
      "latitude": 44.803175
    },
    {
      "id": "_9",
      "label": "Кнеза Милоша",
      "longitude": 20.461451,
      "latitude": 44.805164
    },
    {
      "id": "_10",
      "label": "Савски трг",
      "longitude": 20.455596,
      "latitude": 44.807795
    },
    {
      "id": "_11",
      "label": "Палата Правде",
      "longitude": 20.452917,
      "latitude": 44.804446
    },
    {
      "id": "_12",
      "label": "Мостар",
      "longitude": 20.448743,
      "latitude": 44.79823
    }
  ],
  "direction_b": [
    {
      "id": "_1",
      "label": "Железничка станица Београд Центар",
      "longitude": 20.4526,
      "latitude": 44.793413
    },
    {
      "id": "_2",
      "label": "Ортопедски завод",
      "longitude": 20.448735,
      "latitude": 44.795048
    },
    {
      "id": "_3",
      "label": "Мостар",
      "longitude": 20.449237,
      "latitude": 44.798754
    },
    {
      "id": "_4",
      "label": "Дурмиторска",
      "longitude": 20.451415,
      "latitude": 44.802039
    },
    {
      "id": "_5",
      "label": "Палата Правде",
      "longitude": 20.453787,
      "latitude": 44.804951
    },
    {
      "id": "_6",
      "label": "Савски трг",
      "longitude": 20.456618,
      "latitude": 44.80779
    },
    {
      "id": "_7",
      "label": "Кнеза Милоша",
      "longitude": 20.460639,
      "latitude": 44.805391
    },
    {
      "id": "_8",
      "label": "Трг Славија /Немањина/",
      "longitude": 20.464426,
      "latitude": 44.803102
    },
    {
      "id": "_9",
      "label": "Трг Славија /Булевар Ослобођења/",
      "longitude": 20.466065,
      "latitude": 44.801477
    },
    {
      "id": "_10",
      "label": "Карађорђев парк",
      "longitude": 20.465196,
      "latitude": 44.797029
    },
    {
      "id": "_11",
      "label": "Франше Д'Епереа",
      "longitude": 20.466411,
      "latitude": 44.792716
    },
    {
      "id": "_12",
      "label": "Трг Ослобођења",
      "longitude": 20.463844,
      "latitude": 44.787847
    },
    {
      "id": "_13",
      "label": "Кнеза Алекстандра Карађорђевића булевар",
      "longitude": 20.455997,
      "latitude": 44.789861
    },
    {
      "id": "_14",
      "label": "Гучевска",
      "longitude": 20.458013,
      "latitude": 44.792537
    }
  ]
}