{
  "direction_a": [
    {
      "id": "_1",
      "label": "Железничка станица Београд Центар",
      "longitude": 20.453604,
      "latitude": 44.792783
    },
    {
      "id": "_2",
      "label": "Гучевска",
      "longitude": 20.45798,
      "latitude": 44.792471
    },
    {
      "id": "_3",
      "label": "Кнеза Алекстандра Карађорђевића булевар",
      "longitude": 20.456129,
      "latitude": 44.790091
    },
    {
      "id": "_4",
      "label": "Трг Ослобођења",
      "longitude": 20.466297,
      "latitude": 44.788087
    },
    {
      "id": "_5",
      "label": "Франше Д'Епереа",
      "longitude": 20.466713,
      "latitude": 44.792784
    },
    {
      "id": "_6",
      "label": "Карађорђев парк",
      "longitude": 20.465719,
      "latitude": 44.79816
    },
    {
      "id": "_7",
      "label": "Трг Славија /Булевар Ослобођења/",
      "longitude": 20.46636,
      "latitude": 44.801732
    },
    {
      "id": "_8",
      "label": "Трг Славија /Немањина/",
      "longitude": 20.464569,
      "latitude": 44.803275
    },
    {
      "id": "_9",
      "label": "Кнеза Милоша",
      "longitude": 20.461391,
      "latitude": 44.805239
    },
    {
      "id": "_10",
      "label": "Савски трг",
      "longitude": 20.455627,
      "latitude": 44.80782
    },
    {
      "id": "_11",
      "label": "Палата Правде",
      "longitude": 20.452901,
      "latitude": 44.804428
    },
    {
      "id": "_12",
      "label": "Мостар",
      "longitude": 20.448834,
      "latitude": 44.798229
    }
  ],
  "direction_b": [
    {
      "id": "_1",
      "label": "Железничка станица Београд Центар",
      "longitude": 20.452828,
      "latitude": 44.793324
    },
    {
      "id": "_2",
      "label": "Ортопедски завод",
      "longitude": 20.44875,
      "latitude": 44.795071
    },
    {
      "id": "_3",
      "label": "Мостар",
      "longitude": 20.44927,
      "latitude": 44.798762
    },
    {
      "id": "_4",
      "label": "Дурмиторска",
      "longitude": 20.451504,
      "latitude": 44.80211
    },
    {
      "id": "_5",
      "label": "Палата Правде",
      "longitude": 20.453797,
      "latitude": 44.804909
    },
    {
      "id": "_6",
      "label": "Савски трг",
      "longitude": 20.456654,
      "latitude": 44.807757
    },
    {
      "id": "_7",
      "label": "Кнеза Милоша",
      "longitude": 20.460619,
      "latitude": 44.805382
    },
    {
      "id": "_8",
      "label": "Трг Славија /Немањина/",
      "longitude": 20.464392,
      "latitude": 44.803074
    },
    {
      "id": "_9",
      "label": "Трг Славија /Булевар Ослобођења/",
      "longitude": 20.466047,
      "latitude": 44.801404
    },
    {
      "id": "_10",
      "label": "Карађорђев парк",
      "longitude": 20.465237,
      "latitude": 44.797099
    },
    {
      "id": "_11",
      "label": "Франше Д'Епереа",
      "longitude": 20.466405,
      "latitude": 44.792679
    },
    {
      "id": "_12",
      "label": "Трг Ослобођења",
      "longitude": 20.463844,
      "latitude": 44.787847
    },
    {
      "id": "_13",
      "label": "Кнеза Алекстандра Карађорђевића булевар",
      "longitude": 20.455919,
      "latitude": 44.7898
    },
    {
      "id": "_14",
      "label": "Гучевска",
      "longitude": 20.45798,
      "latitude": 44.792471
    }
  ]
}