{
  "direction_a": [
    {
      "id": "_1",
      "label": "Погон Космај",
      "longitude": 20.517254,
      "latitude": 44.772226
    },
    {
      "id": "_2",
      "label": "СП Ласта",
      "longitude": 20.518314,
      "latitude": 44.771805
    },
    {
      "id": "_3",
      "label": "Владимира Томановића",
      "longitude": 20.50209,
      "latitude": 44.781799
    },
    {
      "id": "_4",
      "label": "Шумице",
      "longitude": 20.500032,
      "latitude": 44.783659
    },
    {
      "id": "_5",
      "label": "Хотел Србија",
      "longitude": 20.493842,
      "latitude": 44.78416
    },
    {
      "id": "_6",
      "label": "Грчића Миленка",
      "longitude": 20.486495,
      "latitude": 44.784386
    },
    {
      "id": "_7",
      "label": "Душановац /Пошта/",
      "longitude": 20.48134,
      "latitude": 44.784809
    },
    {
      "id": "_8",
      "label": "Дом Здравља Вождовац",
      "longitude": 20.473918,
      "latitude": 44.78763
    },
    {
      "id": "_9",
      "label": "Франше Д'Епереа",
      "longitude": 20.468232,
      "latitude": 44.790862
    },
    {
      "id": "_10",
      "label": "Делиградска",
      "longitude": 20.457594,
      "latitude": 44.795771
    },
    {
      "id": "_11",
      "label": "Мостар",
      "longitude": 20.449237,
      "latitude": 44.798754
    }
  ],
  "direction_b": [
    {
      "id": "_1",
      "label": "Мостар",
      "longitude": 20.448743,
      "latitude": 44.79823
    },
    {
      "id": "_2",
      "label": "Делиградска",
      "longitude": 20.457356,
      "latitude": 44.795314
    },
    {
      "id": "_3",
      "label": "Франше Д'Епереа",
      "longitude": 20.466416,
      "latitude": 44.791513
    },
    {
      "id": "_4",
      "label": "Погон Космај",
      "longitude": 20.517362,
      "latitude": 44.772254
    },
    {
      "id": "_5",
      "label": "Погон Космај",
      "longitude": 20.517254,
      "latitude": 44.772226
    }
  ]
}