{
  "direction_a": [
    {
      "id": "_1",
      "label": "Славија /Бирчанинова/",
      "longitude": 20.465362,
      "latitude": 44.800531
    },
    {
      "id": "_2",
      "label": "Карађорђев парк",
      "longitude": 20.465196,
      "latitude": 44.797029
    },
    {
      "id": "_3",
      "label": "Франше Д'Епереа",
      "longitude": 20.466411,
      "latitude": 44.792716
    },
    {
      "id": "_4",
      "label": "Трг Ослобођења",
      "longitude": 20.465748,
      "latitude": 44.785268
    },
    {
      "id": "_5",
      "label": "Вељка Лукића Курјака",
      "longitude": 20.468471,
      "latitude": 44.779442
    },
    {
      "id": "_6",
      "label": "Атлетска дворана",
      "longitude": 20.472578,
      "latitude": 44.776378
    },
    {
      "id": "_7",
      "label": "Факултет Политичких Наука",
      "longitude": 20.473634,
      "latitude": 44.77349
    },
    {
      "id": "_8",
      "label": "Факултет Организационих Наука",
      "longitude": 20.475866,
      "latitude": 44.770555
    },
    {
      "id": "_9",
      "label": "Капетана Завишића",
      "longitude": 20.476796,
      "latitude": 44.768101
    },
    {
      "id": "_10",
      "label": "Мосорска",
      "longitude": 20.477911,
      "latitude": 44.765262
    },
    {
      "id": "_11",
      "label": "Трошарина",
      "longitude": 20.479154,
      "latitude": 44.762439
    },
    {
      "id": "_12",
      "label": "Баштованска",
      "longitude": 20.476904,
      "latitude": 44.756365
    },
    {
      "id": "_13",
      "label": "Крагујевачких Ђака",
      "longitude": 20.477429,
      "latitude": 44.754178
    },
    {
      "id": "_14",
      "label": "Бањица 2",
      "longitude": 20.479489,
      "latitude": 44.75264
    },
    {
      "id": "_15",
      "label": "Ристе Стефановића",
      "longitude": 20.479492,
      "latitude": 44.750185
    },
    {
      "id": "_16",
      "label": "Воје Радића",
      "longitude": 20.476941,
      "latitude": 44.746775
    },
    {
      "id": "_17",
      "label": "Саве Јовановића",
      "longitude": 20.483454,
      "latitude": 44.742432
    },
    {
      "id": "_18",
      "label": "Јајинци /Дом Здравља/",
      "longitude": 20.485876,
      "latitude": 44.740429
    },
    {
      "id": "_19",
      "label": "Милутина Миланковића",
      "longitude": 20.4838,
      "latitude": 44.735316
    },
    {
      "id": "_20",
      "label": "Кефалониска",
      "longitude": 20.483142,
      "latitude": 44.730497
    },
    {
      "id": "_21",
      "label": "Спомен Парк Јајинци",
      "longitude": 20.486254,
      "latitude": 44.727318
    },
    {
      "id": "_22",
      "label": "Раковица /Спомен чесма/",
      "longitude": 20.49495,
      "latitude": 44.726484
    },
    {
      "id": "_23",
      "label": "Раковица",
      "longitude": 20.498109,
      "latitude": 44.721637
    },
    {
      "id": "_24",
      "label": "Кружни пут",
      "longitude": 20.50401,
      "latitude": 44.718891
    },
    {
      "id": "_25",
      "label": "Бели Поток /Кумбара/",
      "longitude": 20.506046,
      "latitude": 44.710773
    },
    {
      "id": "_26",
      "label": "Бели Поток /Пошта/",
      "longitude": 20.504305,
      "latitude": 44.701242
    },
    {
      "id": "_27",
      "label": "Врх Авала",
      "longitude": 20.501843,
      "latitude": 44.696315
    },
    {
      "id": "_28",
      "label": "МЗ Пиносава",
      "longitude": 20.493126,
      "latitude": 44.695434
    },
    {
      "id": "_29",
      "label": "Пиносава /ОШ Васа Чарапић/",
      "longitude": 20.489306,
      "latitude": 44.695047
    },
    {
      "id": "_30",
      "label": "Пиносава /Задруга/",
      "longitude": 20.483201,
      "latitude": 44.696897
    },
    {
      "id": "_31",
      "label": "Гробље",
      "longitude": 20.478044,
      "latitude": 44.696166
    },
    {
      "id": "_32",
      "label": "Доњи краj ",
      "longitude": 20.475271,
      "latitude": 44.696261
    },
    {
      "id": "_33",
      "label": "Пиносава",
      "longitude": 20.47078,
      "latitude": 44.695827
    }
  ],
  "direction_b": [
    {
      "id": "_1",
      "label": "Пиносава",
      "longitude": 20.47078,
      "latitude": 44.695827
    },
    {
      "id": "_2",
      "label": "Доњи краj ",
      "longitude": 20.474992,
      "latitude": 44.696074
    },
    {
      "id": "_3",
      "label": "Гробље",
      "longitude": 20.478862,
      "latitude": 44.69659
    },
    {
      "id": "_4",
      "label": "Пиносава /Задруга/",
      "longitude": 20.483703,
      "latitude": 44.69674
    },
    {
      "id": "_5",
      "label": "Пиносава /ОШ Васа Чарапић/",
      "longitude": 20.489725,
      "latitude": 44.694952
    },
    {
      "id": "_6",
      "label": "МЗ Пиносава",
      "longitude": 20.49279,
      "latitude": 44.695322
    },
    {
      "id": "_7",
      "label": "Врх Авала",
      "longitude": 20.502012,
      "latitude": 44.696573
    },
    {
      "id": "_8",
      "label": "Бели Поток /Пошта/",
      "longitude": 20.504817,
      "latitude": 44.701636
    },
    {
      "id": "_9",
      "label": "Бели Поток /Кумбара/",
      "longitude": 20.506222,
      "latitude": 44.710721
    },
    {
      "id": "_10",
      "label": "Кружни пут",
      "longitude": 20.504133,
      "latitude": 44.719097
    },
    {
      "id": "_11",
      "label": "Раковица",
      "longitude": 20.49751,
      "latitude": 44.72193
    },
    {
      "id": "_12",
      "label": "Раковица /Спомен чесма/",
      "longitude": 20.49437,
      "latitude": 44.726449
    },
    {
      "id": "_13",
      "label": "Спомен Парк Јајинци",
      "longitude": 20.48432,
      "latitude": 44.729519
    },
    {
      "id": "_14",
      "label": "Милутина Миланковића",
      "longitude": 20.483863,
      "latitude": 44.735047
    },
    {
      "id": "_15",
      "label": "Јајинци /Дом Здравља/",
      "longitude": 20.485457,
      "latitude": 44.741005
    },
    {
      "id": "_16",
      "label": "Саве Јовановића",
      "longitude": 20.483137,
      "latitude": 44.742628
    },
    {
      "id": "_17",
      "label": "Воје Радића",
      "longitude": 20.477255,
      "latitude": 44.746366
    },
    {
      "id": "_18",
      "label": "Ристе Стефановића",
      "longitude": 20.480345,
      "latitude": 44.74996
    },
    {
      "id": "_19",
      "label": "Бањица 2",
      "longitude": 20.48054,
      "latitude": 44.751711
    },
    {
      "id": "_20",
      "label": "Крагујевачких Ђака",
      "longitude": 20.477065,
      "latitude": 44.754787
    },
    {
      "id": "_21",
      "label": "Баштованска",
      "longitude": 20.477191,
      "latitude": 44.75698
    },
    {
      "id": "_22",
      "label": "Паунова",
      "longitude": 20.476732,
      "latitude": 44.760882
    },
    {
      "id": "_23",
      "label": "Трошарина",
      "longitude": 20.479728,
      "latitude": 44.762224
    },
    {
      "id": "_24",
      "label": "Мосорска",
      "longitude": 20.478135,
      "latitude": 44.765549
    },
    {
      "id": "_25",
      "label": "Капетана Завишића",
      "longitude": 20.477083,
      "latitude": 44.768416
    },
    {
      "id": "_26",
      "label": "Факултет Организационих Наука",
      "longitude": 20.475756,
      "latitude": 44.771246
    },
    {
      "id": "_27",
      "label": "Факултет Политичких Наука",
      "longitude": 20.474008,
      "latitude": 44.773571
    },
    {
      "id": "_28",
      "label": "Атлетска дворана",
      "longitude": 20.47173,
      "latitude": 44.777542
    },
    {
      "id": "_29",
      "label": "Вељка Лукића Курјака",
      "longitude": 20.468396,
      "latitude": 44.780099
    },
    {
      "id": "_30",
      "label": "Трг Ослобођења",
      "longitude": 20.466279,
      "latitude": 44.788102
    },
    {
      "id": "_31",
      "label": "Франше Д'Епереа",
      "longitude": 20.466738,
      "latitude": 44.792674
    },
    {
      "id": "_32",
      "label": "Карађорђев парк",
      "longitude": 20.465713,
      "latitude": 44.798107
    },
    {
      "id": "_33",
      "label": "Трг Славија /Булевар Ослобођења/",
      "longitude": 20.466314,
      "latitude": 44.801565
    },
    {
      "id": "_34",
      "label": "Славија /Бирчанинова/",
      "longitude": 20.465362,
      "latitude": 44.800531
    }
  ]
}