{
  "direction_a": [
    {
      "id": "_1",
      "label": "Вождовац",
      "longitude": 20.483639,
      "latitude": 44.761061
    },
    {
      "id": "_2",
      "label": "Баштованска",
      "longitude": 20.476904,
      "latitude": 44.756365
    },
    {
      "id": "_3",
      "label": "Крагујевачких Ђака",
      "longitude": 20.477429,
      "latitude": 44.754178
    },
    {
      "id": "_4",
      "label": "Бањица 2",
      "longitude": 20.479489,
      "latitude": 44.75264
    },
    {
      "id": "_5",
      "label": "Ристе Стефановића",
      "longitude": 20.479492,
      "latitude": 44.750185
    },
    {
      "id": "_6",
      "label": "Воје Радића",
      "longitude": 20.476941,
      "latitude": 44.746775
    },
    {
      "id": "_7",
      "label": "Саве Јовановића",
      "longitude": 20.483454,
      "latitude": 44.742432
    },
    {
      "id": "_8",
      "label": "Јајинци /Дом Здравља/",
      "longitude": 20.485876,
      "latitude": 44.740429
    },
    {
      "id": "_9",
      "label": "Милутина Миланковића",
      "longitude": 20.4838,
      "latitude": 44.735316
    },
    {
      "id": "_10",
      "label": "Кефалониска",
      "longitude": 20.483142,
      "latitude": 44.730497
    },
    {
      "id": "_11",
      "label": "Спомен Парк Јајинци",
      "longitude": 20.486254,
      "latitude": 44.727318
    },
    {
      "id": "_12",
      "label": "Раковица /Спомен чесма/",
      "longitude": 20.49495,
      "latitude": 44.726484
    },
    {
      "id": "_13",
      "label": "Раковица",
      "longitude": 20.498109,
      "latitude": 44.721637
    },
    {
      "id": "_14",
      "label": "Кружни пут",
      "longitude": 20.50401,
      "latitude": 44.718891
    },
    {
      "id": "_15",
      "label": "Бели Поток /Кумбара/",
      "longitude": 20.506046,
      "latitude": 44.710773
    },
    {
      "id": "_16",
      "label": "Бели Поток /Пошта/",
      "longitude": 20.504305,
      "latitude": 44.701242
    },
    {
      "id": "_17",
      "label": "Врх Авала",
      "longitude": 20.501843,
      "latitude": 44.696315
    },
    {
      "id": "_18",
      "label": "Шумарева Кућа",
      "longitude": 20.517947,
      "latitude": 44.680335
    },
    {
      "id": "_19",
      "label": "Пут за Зуце",
      "longitude": 20.533152,
      "latitude": 44.680818
    },
    {
      "id": "_20",
      "label": "Карагачка",
      "longitude": 20.536666,
      "latitude": 44.681083
    },
    {
      "id": "_21",
      "label": "Касарна /Главна улаз/",
      "longitude": 20.545051,
      "latitude": 44.684043
    },
    {
      "id": "_22",
      "label": "Зуце /Улаз/",
      "longitude": 20.547494,
      "latitude": 44.685443
    },
    {
      "id": "_23",
      "label": "Зуце /Продавница/",
      "longitude": 20.552542,
      "latitude": 44.69082
    },
    {
      "id": "_24",
      "label": "Зуце /Амбуланта/",
      "longitude": 20.552807,
      "latitude": 44.694166
    },
    {
      "id": "_25",
      "label": "Зуце /Центар/",
      "longitude": 20.556938,
      "latitude": 44.698889
    },
    {
      "id": "_26",
      "label": "Зуце /Црква/",
      "longitude": 20.552781,
      "latitude": 44.702143
    },
    {
      "id": "_27",
      "label": "Зуце /Брђани 1/",
      "longitude": 20.545195,
      "latitude": 44.70351
    },
    {
      "id": "_28",
      "label": "Зуце /Брђани 2/",
      "longitude": 20.542071,
      "latitude": 44.699541
    },
    {
      "id": "_29",
      "label": "Зуце",
      "longitude": 20.539632,
      "latitude": 44.696706
    }
  ],
  "direction_b": [
    {
      "id": "_1",
      "label": "Зуце",
      "longitude": 20.539927,
      "latitude": 44.696807
    },
    {
      "id": "_2",
      "label": "Зуце /Брђани 2/",
      "longitude": 20.541845,
      "latitude": 44.699185
    },
    {
      "id": "_3",
      "label": "Зуце /Брђани 1/",
      "longitude": 20.545214,
      "latitude": 44.703409
    },
    {
      "id": "_4",
      "label": "Зуце /Црква/",
      "longitude": 20.552802,
      "latitude": 44.702008
    },
    {
      "id": "_5",
      "label": "Зуце /Центар/",
      "longitude": 20.556732,
      "latitude": 44.69896
    },
    {
      "id": "_6",
      "label": "Зуце /Амбуланта/",
      "longitude": 20.552697,
      "latitude": 44.694041
    },
    {
      "id": "_7",
      "label": "Зуце /Продавница/",
      "longitude": 20.55225,
      "latitude": 44.690557
    },
    {
      "id": "_8",
      "label": "Зуце /Улаз/",
      "longitude": 20.547491,
      "latitude": 44.685612
    },
    {
      "id": "_9",
      "label": "Касарна /Главна улаз/",
      "longitude": 20.544356,
      "latitude": 44.683953
    },
    {
      "id": "_10",
      "label": "Карагачка",
      "longitude": 20.535687,
      "latitude": 44.680744
    },
    {
      "id": "_11",
      "label": "Пут за Зуце",
      "longitude": 20.532927,
      "latitude": 44.680904
    },
    {
      "id": "_12",
      "label": "Шумарева Кућа",
      "longitude": 20.51854,
      "latitude": 44.680414
    },
    {
      "id": "_13",
      "label": "Врх Авала",
      "longitude": 20.502012,
      "latitude": 44.696573
    },
    {
      "id": "_14",
      "label": "Бели Поток /Пошта/",
      "longitude": 20.504817,
      "latitude": 44.701636
    },
    {
      "id": "_15",
      "label": "Бели Поток /Кумбара/",
      "longitude": 20.506222,
      "latitude": 44.710721
    },
    {
      "id": "_16",
      "label": "Кружни пут",
      "longitude": 20.504133,
      "latitude": 44.719097
    },
    {
      "id": "_17",
      "label": "Раковица",
      "longitude": 20.49751,
      "latitude": 44.72193
    },
    {
      "id": "_18",
      "label": "Раковица /Спомен чесма/",
      "longitude": 20.49437,
      "latitude": 44.726449
    },
    {
      "id": "_19",
      "label": "Спомен Парк Јајинци",
      "longitude": 20.48432,
      "latitude": 44.729519
    },
    {
      "id": "_20",
      "label": "Милутина Миланковића",
      "longitude": 20.483863,
      "latitude": 44.735047
    },
    {
      "id": "_21",
      "label": "Јајинци /Дом Здравља/",
      "longitude": 20.485457,
      "latitude": 44.741005
    },
    {
      "id": "_22",
      "label": "Саве Јовановића",
      "longitude": 20.483137,
      "latitude": 44.742628
    },
    {
      "id": "_23",
      "label": "Воје Радића",
      "longitude": 20.477255,
      "latitude": 44.746366
    },
    {
      "id": "_24",
      "label": "Ристе Стефановића",
      "longitude": 20.480345,
      "latitude": 44.74996
    },
    {
      "id": "_25",
      "label": "Бањица 2",
      "longitude": 20.48054,
      "latitude": 44.751711
    },
    {
      "id": "_26",
      "label": "Крагујевачких Ђака",
      "longitude": 20.477065,
      "latitude": 44.754787
    },
    {
      "id": "_27",
      "label": "Баштованска",
      "longitude": 20.477191,
      "latitude": 44.75698
    },
    {
      "id": "_28",
      "label": "Паунова",
      "longitude": 20.476732,
      "latitude": 44.760882
    },
    {
      "id": "_29",
      "label": "Вождовац",
      "longitude": 20.483639,
      "latitude": 44.761061
    }
  ]
}