{
  "direction_a": [
    {
      "id": "_1",
      "label": "Вождовац",
      "longitude": 20.483639,
      "latitude": 44.761061
    },
    {
      "id": "_2",
      "label": "Баштованска",
      "longitude": 20.476904,
      "latitude": 44.756365
    },
    {
      "id": "_3",
      "label": "Крагујевачких Ђака",
      "longitude": 20.477429,
      "latitude": 44.754178
    },
    {
      "id": "_4",
      "label": "Бањица 2",
      "longitude": 20.479489,
      "latitude": 44.75264
    },
    {
      "id": "_5",
      "label": "Ристе Стефановића",
      "longitude": 20.479492,
      "latitude": 44.750185
    },
    {
      "id": "_6",
      "label": "Воје Радића",
      "longitude": 20.476941,
      "latitude": 44.746775
    },
    {
      "id": "_7",
      "label": "Саве Јовановића",
      "longitude": 20.483454,
      "latitude": 44.742432
    },
    {
      "id": "_8",
      "label": "Јајинци /Дом Здравља/",
      "longitude": 20.485876,
      "latitude": 44.740429
    },
    {
      "id": "_9",
      "label": "Милутина Миланковића",
      "longitude": 20.4838,
      "latitude": 44.735316
    },
    {
      "id": "_10",
      "label": "Кефалониска",
      "longitude": 20.483142,
      "latitude": 44.730497
    },
    {
      "id": "_11",
      "label": "Спомен Парк Јајинци",
      "longitude": 20.486254,
      "latitude": 44.727318
    },
    {
      "id": "_12",
      "label": "Раковица /Спомен чесма/",
      "longitude": 20.49495,
      "latitude": 44.726484
    },
    {
      "id": "_13",
      "label": "Раковица",
      "longitude": 20.498109,
      "latitude": 44.721637
    },
    {
      "id": "_14",
      "label": "Кружни пут",
      "longitude": 20.50401,
      "latitude": 44.718891
    },
    {
      "id": "_15",
      "label": "Бели Поток /Кумбара/",
      "longitude": 20.506046,
      "latitude": 44.710773
    },
    {
      "id": "_16",
      "label": "Бели Поток /Пошта/",
      "longitude": 20.504305,
      "latitude": 44.701242
    },
    {
      "id": "_17",
      "label": "Врх Авала",
      "longitude": 20.501843,
      "latitude": 44.696315
    },
    {
      "id": "_18",
      "label": "Шумарева Кућа",
      "longitude": 20.517947,
      "latitude": 44.680335
    },
    {
      "id": "_19",
      "label": "Пут за Зуце",
      "longitude": 20.532806,
      "latitude": 44.680717
    },
    {
      "id": "_20",
      "label": "Капија Шумадије",
      "longitude": 20.541867,
      "latitude": 44.670114
    },
    {
      "id": "_21",
      "label": "Шупља Стена",
      "longitude": 20.5421,
      "latitude": 44.666013
    },
    {
      "id": "_22",
      "label": "Раскрсница Врчин",
      "longitude": 20.54343,
      "latitude": 44.662651
    },
    {
      "id": "_23",
      "label": "Расадник",
      "longitude": 20.550302,
      "latitude": 44.654793
    },
    {
      "id": "_24",
      "label": "Прњавор /Улаз/",
      "longitude": 20.553711,
      "latitude": 44.647603
    },
    {
      "id": "_25",
      "label": "Средњи Прњавор",
      "longitude": 20.551769,
      "latitude": 44.641229
    },
    {
      "id": "_26",
      "label": "Прњавор /Школа/",
      "longitude": 20.554127,
      "latitude": 44.632383
    },
    {
      "id": "_27",
      "label": "Трешња",
      "longitude": 20.555168,
      "latitude": 44.620654
    },
    {
      "id": "_28",
      "label": "Авалски Цвет",
      "longitude": 20.556388,
      "latitude": 44.614906
    },
    {
      "id": "_29",
      "label": "Трешња /Школа/",
      "longitude": 20.556002,
      "latitude": 44.608349
    },
    {
      "id": "_30",
      "label": "Трешња /Ковиона/",
      "longitude": 20.567592,
      "latitude": 44.596868
    },
    {
      "id": "_31",
      "label": "Раља /13. Октобра/",
      "longitude": 20.564725,
      "latitude": 44.584377
    },
    {
      "id": "_32",
      "label": "Раља /Ливница/",
      "longitude": 20.565363,
      "latitude": 44.57719
    },
    {
      "id": "_33",
      "label": "Раља /Центар/",
      "longitude": 20.558094,
      "latitude": 44.573858
    },
    {
      "id": "_34",
      "label": "Раља /Трафо/",
      "longitude": 20.570864,
      "latitude": 44.56984
    },
    {
      "id": "_35",
      "label": "Раља /Друмине/",
      "longitude": 20.581174,
      "latitude": 44.560671
    }
  ],
  "direction_b": [
    {
      "id": "_1",
      "label": "Раља /Друмине/",
      "longitude": 20.581174,
      "latitude": 44.560671
    },
    {
      "id": "_2",
      "label": "Раља /Трафо/",
      "longitude": 20.570054,
      "latitude": 44.570186
    },
    {
      "id": "_3",
      "label": "Раља /Центар/",
      "longitude": 20.558687,
      "latitude": 44.574007
    },
    {
      "id": "_4",
      "label": "Раља /Ливница/",
      "longitude": 20.565725,
      "latitude": 44.577143
    },
    {
      "id": "_5",
      "label": "Раља /13. Октобра/",
      "longitude": 20.565473,
      "latitude": 44.585867
    },
    {
      "id": "_6",
      "label": "Трешња /Ковиона/",
      "longitude": 20.567957,
      "latitude": 44.596436
    },
    {
      "id": "_7",
      "label": "Трешња /Школа/",
      "longitude": 20.556179,
      "latitude": 44.608664
    },
    {
      "id": "_8",
      "label": "Авалски Цвет",
      "longitude": 20.556217,
      "latitude": 44.615326
    },
    {
      "id": "_9",
      "label": "Трешња",
      "longitude": 20.555452,
      "latitude": 44.620826
    },
    {
      "id": "_10",
      "label": "Прњавор /Школа/",
      "longitude": 20.554264,
      "latitude": 44.632413
    },
    {
      "id": "_11",
      "label": "Средњи Прњавор",
      "longitude": 20.552024,
      "latitude": 44.641014
    },
    {
      "id": "_12",
      "label": "Прњавор /Улаз/",
      "longitude": 20.553926,
      "latitude": 44.648008
    },
    {
      "id": "_13",
      "label": "Расадник",
      "longitude": 20.550439,
      "latitude": 44.654856
    },
    {
      "id": "_14",
      "label": "Раскрсница Врчин",
      "longitude": 20.543398,
      "latitude": 44.662915
    },
    {
      "id": "_15",
      "label": "Шупља Стена",
      "longitude": 20.54224,
      "latitude": 44.66594
    },
    {
      "id": "_16",
      "label": "Капија Шумадије",
      "longitude": 20.542081,
      "latitude": 44.670467
    },
    {
      "id": "_17",
      "label": "Пут за Зуце",
      "longitude": 20.532973,
      "latitude": 44.680717
    },
    {
      "id": "_18",
      "label": "Шумарева Кућа",
      "longitude": 20.51854,
      "latitude": 44.680414
    },
    {
      "id": "_19",
      "label": "Врх Авала",
      "longitude": 20.502012,
      "latitude": 44.696573
    },
    {
      "id": "_20",
      "label": "Бели Поток /Пошта/",
      "longitude": 20.504817,
      "latitude": 44.701636
    },
    {
      "id": "_21",
      "label": "Бели Поток /Кумбара/",
      "longitude": 20.506222,
      "latitude": 44.710721
    },
    {
      "id": "_22",
      "label": "Кружни пут",
      "longitude": 20.504133,
      "latitude": 44.719097
    },
    {
      "id": "_23",
      "label": "Раковица",
      "longitude": 20.49751,
      "latitude": 44.72193
    },
    {
      "id": "_24",
      "label": "Раковица /Спомен чесма/",
      "longitude": 20.49437,
      "latitude": 44.726449
    },
    {
      "id": "_25",
      "label": "Спомен Парк Јајинци",
      "longitude": 20.48432,
      "latitude": 44.729519
    },
    {
      "id": "_26",
      "label": "Милутина Миланковића",
      "longitude": 20.483863,
      "latitude": 44.735047
    },
    {
      "id": "_27",
      "label": "Јајинци /Дом Здравља/",
      "longitude": 20.485457,
      "latitude": 44.741005
    },
    {
      "id": "_28",
      "label": "Саве Јовановића",
      "longitude": 20.483137,
      "latitude": 44.742628
    },
    {
      "id": "_29",
      "label": "Воје Радића",
      "longitude": 20.477255,
      "latitude": 44.746366
    },
    {
      "id": "_30",
      "label": "Ристе Стефановића",
      "longitude": 20.480345,
      "latitude": 44.74996
    },
    {
      "id": "_31",
      "label": "Бањица 2",
      "longitude": 20.48054,
      "latitude": 44.751711
    },
    {
      "id": "_32",
      "label": "Крагујевачких Ђака",
      "longitude": 20.477065,
      "latitude": 44.754787
    },
    {
      "id": "_33",
      "label": "Баштованска",
      "longitude": 20.477191,
      "latitude": 44.75698
    },
    {
      "id": "_34",
      "label": "Паунова",
      "longitude": 20.476732,
      "latitude": 44.760882
    },
    {
      "id": "_35",
      "label": "Вождовац",
      "longitude": 20.483639,
      "latitude": 44.761061
    }
  ]
}