{
  "direction_a": [
    {
      "id": "_1",
      "label": "Студентски трг",
      "longitude": 20.457627,
      "latitude": 44.818714
    },
    {
      "id": "_2",
      "label": "Македонска /Политика/",
      "longitude": 20.465161,
      "latitude": 44.815239
    },
    {
      "id": "_3",
      "label": "Главна пошта",
      "longitude": 20.467285,
      "latitude": 44.811129
    },
    {
      "id": "_4",
      "label": "Адмирала Гепрата",
      "longitude": 20.46143,
      "latitude": 44.806857
    },
    {
      "id": "_5",
      "label": "Милоша Поцерца",
      "longitude": 20.45602,
      "latitude": 44.802401
    },
    {
      "id": "_6",
      "label": "Ортопедски завод",
      "longitude": 20.449905,
      "latitude": 44.793227
    },
    {
      "id": "_7",
      "label": "Музеј Историје Југославије",
      "longitude": 20.454204,
      "latitude": 44.789793
    },
    {
      "id": "_8",
      "label": "Стадион Партизан",
      "longitude": 20.457399,
      "latitude": 44.786338
    },
    {
      "id": "_9",
      "label": "Педагошка академија",
      "longitude": 20.457924,
      "latitude": 44.781816
    },
    {
      "id": "_10",
      "label": "Драгише Мишовић болница",
      "longitude": 20.458083,
      "latitude": 44.777662
    },
    {
      "id": "_11",
      "label": "Паје Адамова",
      "longitude": 20.462581,
      "latitude": 44.772754
    },
    {
      "id": "_12",
      "label": "Бањица",
      "longitude": 20.465998,
      "latitude": 44.769389
    },
    {
      "id": "_13",
      "label": "Војномедицинска академија",
      "longitude": 20.470045,
      "latitude": 44.765668
    },
    {
      "id": "_14",
      "label": "Пливалиште Бањица",
      "longitude": 20.472411,
      "latitude": 44.763076
    },
    {
      "id": "_15",
      "label": "Паунова",
      "longitude": 20.47633,
      "latitude": 44.759979
    },
    {
      "id": "_16",
      "label": "Баштованска",
      "longitude": 20.476904,
      "latitude": 44.756365
    },
    {
      "id": "_17",
      "label": "Крагујевачких Ђака",
      "longitude": 20.477429,
      "latitude": 44.754178
    },
    {
      "id": "_18",
      "label": "Бањица 2",
      "longitude": 20.480023,
      "latitude": 44.75174
    }
  ],
  "direction_b": [
    {
      "id": "_1",
      "label": "Бањица 2",
      "longitude": 20.480023,
      "latitude": 44.75174
    },
    {
      "id": "_2",
      "label": "Крагујевачких Ђака",
      "longitude": 20.477065,
      "latitude": 44.754787
    },
    {
      "id": "_3",
      "label": "Баштованска",
      "longitude": 20.477191,
      "latitude": 44.75698
    },
    {
      "id": "_4",
      "label": "Паунова",
      "longitude": 20.476394,
      "latitude": 44.760419
    },
    {
      "id": "_5",
      "label": "Пливалиште Бањица",
      "longitude": 20.471783,
      "latitude": 44.763976
    },
    {
      "id": "_6",
      "label": "Војномедицинска академија",
      "longitude": 20.469487,
      "latitude": 44.76654
    },
    {
      "id": "_7",
      "label": "Бањица",
      "longitude": 20.465738,
      "latitude": 44.769939
    },
    {
      "id": "_8",
      "label": "Паје Адамова",
      "longitude": 20.462267,
      "latitude": 44.773346
    },
    {
      "id": "_9",
      "label": "Драгише Мишовић болница",
      "longitude": 20.458482,
      "latitude": 44.777658
    },
    {
      "id": "_10",
      "label": "Педагошка академија",
      "longitude": 20.457978,
      "latitude": 44.782669
    },
    {
      "id": "_11",
      "label": "Стадион Партизан",
      "longitude": 20.457656,
      "latitude": 44.785889
    },
    {
      "id": "_12",
      "label": "Музеј Историје Југославије",
      "longitude": 20.453507,
      "latitude": 44.79091
    },
    {
      "id": "_13",
      "label": "Ортопедски завод",
      "longitude": 20.448735,
      "latitude": 44.795048
    },
    {
      "id": "_14",
      "label": "Вишеградска",
      "longitude": 20.455589,
      "latitude": 44.801673
    },
    {
      "id": "_15",
      "label": "Бирчанинова",
      "longitude": 20.459512,
      "latitude": 44.804929
    },
    {
      "id": "_16",
      "label": "Лондон",
      "longitude": 20.462919,
      "latitude": 44.807784
    },
    {
      "id": "_17",
      "label": "Главна пошта",
      "longitude": 20.468385,
      "latitude": 44.811268
    },
    {
      "id": "_18",
      "label": "Македонска /Политика/",
      "longitude": 20.464313,
      "latitude": 44.815549
    },
    {
      "id": "_19",
      "label": "Републике трг",
      "longitude": 20.460982,
      "latitude": 44.816274
    },
    {
      "id": "_20",
      "label": "Студентски трг",
      "longitude": 20.45746,
      "latitude": 44.819231
    },
    {
      "id": "_21",
      "label": "Студентски трг",
      "longitude": 20.457627,
      "latitude": 44.818714
    }
  ]
}