{
  "direction_a": [
    {
      "id": "_1",
      "label": "Блок 44",
      "longitude": 20.383978,
      "latitude": 44.797018
    },
    {
      "id": "_2",
      "label": "Дом здравља",
      "longitude": 20.38267,
      "latitude": 44.799142
    },
    {
      "id": "_3",
      "label": "Нехруова",
      "longitude": 20.379741,
      "latitude": 44.801502
    },
    {
      "id": "_4",
      "label": "ОШ Бранко Радичевић",
      "longitude": 20.37498,
      "latitude": 44.799741
    },
    {
      "id": "_5",
      "label": "Др Ивана Рибара",
      "longitude": 20.370361,
      "latitude": 44.799241
    },
    {
      "id": "_6",
      "label": "Блок 61",
      "longitude": 20.368422,
      "latitude": 44.801549
    },
    {
      "id": "_7",
      "label": "Сурчинска",
      "longitude": 20.367064,
      "latitude": 44.80393
    },
    {
      "id": "_8",
      "label": "Душана Вукасовића",
      "longitude": 20.372252,
      "latitude": 44.806031
    },
    {
      "id": "_9",
      "label": "Црква Св.Георгија",
      "longitude": 20.375897,
      "latitude": 44.807489
    },
    {
      "id": "_10",
      "label": "Бежанија Пијаца",
      "longitude": 20.378641,
      "latitude": 44.808604
    },
    {
      "id": "_11",
      "label": "Гандијева",
      "longitude": 20.383477,
      "latitude": 44.81069
    },
    {
      "id": "_12",
      "label": "ИМТ",
      "longitude": 20.391258,
      "latitude": 44.812825
    },
    {
      "id": "_13",
      "label": "Железничка Станица Тошин Бунар",
      "longitude": 20.395281,
      "latitude": 44.816813
    },
    {
      "id": "_14",
      "label": "Милутина Миланковића",
      "longitude": 20.396156,
      "latitude": 44.820203
    },
    {
      "id": "_15",
      "label": "Студентски Град",
      "longitude": 20.398428,
      "latitude": 44.827315
    },
    {
      "id": "_16",
      "label": "Париске Комуне",
      "longitude": 20.400085,
      "latitude": 44.831595
    },
    {
      "id": "_17",
      "label": "Павиљони",
      "longitude": 20.401568,
      "latitude": 44.835131
    },
    {
      "id": "_18",
      "label": "Биротехничка школа",
      "longitude": 20.403258,
      "latitude": 44.838978
    },
    {
      "id": "_19",
      "label": "Прилаз",
      "longitude": 20.404524,
      "latitude": 44.841595
    },
    {
      "id": "_20",
      "label": "КБЦ Земун",
      "longitude": 20.407027,
      "latitude": 44.840355
    },
    {
      "id": "_21",
      "label": "Александра Дубчека",
      "longitude": 20.410784,
      "latitude": 44.839016
    },
    {
      "id": "_22",
      "label": "22 октобра",
      "longitude": 20.412911,
      "latitude": 44.839425
    },
    {
      "id": "_23",
      "label": "Земун /пошта/",
      "longitude": 20.413413,
      "latitude": 44.842187
    },
    {
      "id": "_24",
      "label": "Бранка Радичевића трг",
      "longitude": 20.409701,
      "latitude": 44.845952
    },
    {
      "id": "_25",
      "label": "Душанова",
      "longitude": 20.401783,
      "latitude": 44.849124
    },
    {
      "id": "_26",
      "label": "Угриновачка",
      "longitude": 20.399291,
      "latitude": 44.84654
    },
    {
      "id": "_27",
      "label": "Стадион Земун",
      "longitude": 20.396032,
      "latitude": 44.84774
    },
    {
      "id": "_28",
      "label": "Бранка Пешића",
      "longitude": 20.391285,
      "latitude": 44.849392
    },
    {
      "id": "_29",
      "label": "Филипа Вишњића",
      "longitude": 20.387597,
      "latitude": 44.849919
    },
    {
      "id": "_30",
      "label": "Рада Кончара /Дом Здравља/",
      "longitude": 20.385582,
      "latitude": 44.845235
    },
    {
      "id": "_31",
      "label": "ОШ Петар Кочић",
      "longitude": 20.384383,
      "latitude": 44.841757
    },
    {
      "id": "_32",
      "label": "Крајишка",
      "longitude": 20.38356,
      "latitude": 44.838581
    },
    {
      "id": "_33",
      "label": "Атанасије Пуље",
      "longitude": 20.382071,
      "latitude": 44.835686
    },
    {
      "id": "_34",
      "label": "Железничка Станица Земун",
      "longitude": 20.375302,
      "latitude": 44.836601
    },
    {
      "id": "_35",
      "label": "ОШ Гаврило Принцип",
      "longitude": 20.37145,
      "latitude": 44.83999
    },
    {
      "id": "_36",
      "label": "Земун /Нови Град/",
      "longitude": 20.368583,
      "latitude": 44.841938
    }
  ],
  "direction_b": [
    {
      "id": "_1",
      "label": "Земун /Нови Град/",
      "longitude": 20.368583,
      "latitude": 44.841938
    },
    {
      "id": "_2",
      "label": "ОШ Гаврило Принцип",
      "longitude": 20.371557,
      "latitude": 44.839891
    },
    {
      "id": "_3",
      "label": "Железничка Станица Земун",
      "longitude": 20.374993,
      "latitude": 44.836808
    },
    {
      "id": "_4",
      "label": "Атанасије Пуље",
      "longitude": 20.382425,
      "latitude": 44.835545
    },
    {
      "id": "_5",
      "label": "Крајишка",
      "longitude": 20.383641,
      "latitude": 44.838126
    },
    {
      "id": "_6",
      "label": "ОШ Петар Кочић",
      "longitude": 20.384797,
      "latitude": 44.84258
    },
    {
      "id": "_7",
      "label": "Рада Кончара /Дом Здравља/",
      "longitude": 20.385998,
      "latitude": 44.845669
    },
    {
      "id": "_8",
      "label": "Филипа Вишњића",
      "longitude": 20.387565,
      "latitude": 44.854709
    },
    {
      "id": "_9",
      "label": "Тршћанска",
      "longitude": 20.391693,
      "latitude": 44.853165
    },
    {
      "id": "_10",
      "label": "Дунавска",
      "longitude": 20.396757,
      "latitude": 44.851288
    },
    {
      "id": "_11",
      "label": "Наде Димић",
      "longitude": 20.402336,
      "latitude": 44.849214
    },
    {
      "id": "_12",
      "label": "Бранка Радичевића трг",
      "longitude": 20.408467,
      "latitude": 44.846397
    },
    {
      "id": "_13",
      "label": "РК Београд",
      "longitude": 20.411983,
      "latitude": 44.843533
    },
    {
      "id": "_14",
      "label": "Земун /пошта/",
      "longitude": 20.414234,
      "latitude": 44.840793
    },
    {
      "id": "_15",
      "label": "Александра Дубчека",
      "longitude": 20.410589,
      "latitude": 44.839235
    },
    {
      "id": "_16",
      "label": "КБЦ Земун",
      "longitude": 20.406509,
      "latitude": 44.841061
    },
    {
      "id": "_17",
      "label": "Прилаз",
      "longitude": 20.403749,
      "latitude": 44.840469
    },
    {
      "id": "_18",
      "label": "Павиљони",
      "longitude": 20.401499,
      "latitude": 44.835408
    },
    {
      "id": "_19",
      "label": "Париске Комуне",
      "longitude": 20.399782,
      "latitude": 44.831307
    },
    {
      "id": "_20",
      "label": "Студентски Град",
      "longitude": 20.39777,
      "latitude": 44.82607
    },
    {
      "id": "_21",
      "label": "СЦ Визура",
      "longitude": 20.396027,
      "latitude": 44.821002
    },
    {
      "id": "_22",
      "label": "Железничка Станица Тошин Бунар",
      "longitude": 20.395053,
      "latitude": 44.817222
    },
    {
      "id": "_23",
      "label": "Стари Аеродром",
      "longitude": 20.392808,
      "latitude": 44.814103
    },
    {
      "id": "_24",
      "label": "ИМТ",
      "longitude": 20.389638,
      "latitude": 44.812513
    },
    {
      "id": "_25",
      "label": "Гандијева 1",
      "longitude": 20.381948,
      "latitude": 44.810315
    },
    {
      "id": "_26",
      "label": "Бежанија Пијаца",
      "longitude": 20.37774,
      "latitude": 44.808581
    },
    {
      "id": "_27",
      "label": "Црква Св.Георгија",
      "longitude": 20.374628,
      "latitude": 44.807325
    },
    {
      "id": "_28",
      "label": "Душана Вукасовића",
      "longitude": 20.370581,
      "latitude": 44.805672
    },
    {
      "id": "_29",
      "label": "Сурчинска",
      "longitude": 20.36689,
      "latitude": 44.804157
    },
    {
      "id": "_30",
      "label": "Блок 61",
      "longitude": 20.366458,
      "latitude": 44.803165
    },
    {
      "id": "_31",
      "label": "Насеље Др Ивана Рибара",
      "longitude": 20.369468,
      "latitude": 44.79981
    },
    {
      "id": "_32",
      "label": "Др Ивана Рибара",
      "longitude": 20.372308,
      "latitude": 44.798114
    },
    {
      "id": "_33",
      "label": "ОШ Бранко Радичевић",
      "longitude": 20.375658,
      "latitude": 44.799603
    },
    {
      "id": "_34",
      "label": "Нехруова",
      "longitude": 20.379979,
      "latitude": 44.801175
    },
    {
      "id": "_35",
      "label": "Дом здравља",
      "longitude": 20.382608,
      "latitude": 44.798875
    },
    {
      "id": "_36",
      "label": "Блок 44",
      "longitude": 20.384088,
      "latitude": 44.796443
    },
    {
      "id": "_37",
      "label": "Блок 44",
      "longitude": 20.383978,
      "latitude": 44.797018
    }
  ]
}