{
  "direction_a": [
    {
      "id": "_1",
      "label": "Петлово Брдо",
      "longitude": 20.428659,
      "latitude": 44.718479
    },
    {
      "id": "_2",
      "label": "Расињска",
      "longitude": 20.425097,
      "latitude": 44.720277
    },
    {
      "id": "_3",
      "label": "Милорада Драшковића",
      "longitude": 20.421224,
      "latitude": 44.722339
    },
    {
      "id": "_4",
      "label": "Генерала Згоњанина",
      "longitude": 20.423069,
      "latitude": 44.72499
    },
    {
      "id": "_5",
      "label": "11 Краишке Дивизије",
      "longitude": 20.426194,
      "latitude": 44.726104
    },
    {
      "id": "_6",
      "label": "Дом здравља Лабудово Брдо",
      "longitude": 20.428621,
      "latitude": 44.725542
    },
    {
      "id": "_7",
      "label": "Сретена Младеновића",
      "longitude": 20.431818,
      "latitude": 44.726829
    },
    {
      "id": "_8",
      "label": "17. октобра",
      "longitude": 20.42789,
      "latitude": 44.730306
    },
    {
      "id": "_9",
      "label": "ОШ 14. октобар",
      "longitude": 20.427387,
      "latitude": 44.733507
    },
    {
      "id": "_10",
      "label": "Славка Родића",
      "longitude": 20.430654,
      "latitude": 44.737145
    },
    {
      "id": "_11",
      "label": "Стојана Јанковића",
      "longitude": 20.432835,
      "latitude": 44.741403
    },
    {
      "id": "_12",
      "label": "Стевана Луковића",
      "longitude": 20.435614,
      "latitude": 44.743224
    },
    {
      "id": "_13",
      "label": "Пилота Михајла Петровића",
      "longitude": 20.438411,
      "latitude": 44.744838
    },
    {
      "id": "_14",
      "label": "Мишка Крањца",
      "longitude": 20.442091,
      "latitude": 44.742986
    },
    {
      "id": "_15",
      "label": "Ослобођења",
      "longitude": 20.438615,
      "latitude": 44.739084
    },
    {
      "id": "_16",
      "label": "Кнежевац",
      "longitude": 20.431448,
      "latitude": 44.734687
    },
    {
      "id": "_17",
      "label": "Депонија",
      "longitude": 20.4348,
      "latitude": 44.728838
    },
    {
      "id": "_18",
      "label": "Кијево",
      "longitude": 20.437978,
      "latitude": 44.725173
    },
    {
      "id": "_19",
      "label": "Летићева",
      "longitude": 20.436856,
      "latitude": 44.722562
    },
    {
      "id": "_20",
      "label": "Пролетерска /Улаз/",
      "longitude": 20.435102,
      "latitude": 44.721062
    },
    {
      "id": "_21",
      "label": "Железнички мост",
      "longitude": 20.432644,
      "latitude": 44.718767
    },
    {
      "id": "_22",
      "label": "Фудбалско игралиште",
      "longitude": 20.431062,
      "latitude": 44.716734
    },
    {
      "id": "_23",
      "label": "Старо Кијево",
      "longitude": 20.428187,
      "latitude": 44.715133
    }
  ],
  "direction_b": [
    {
      "id": "_1",
      "label": "Старо Кијево",
      "longitude": 20.428187,
      "latitude": 44.715133
    },
    {
      "id": "_2",
      "label": "Фудбалско игралиште",
      "longitude": 20.430853,
      "latitude": 44.716471
    },
    {
      "id": "_3",
      "label": "Железнички мост",
      "longitude": 20.433063,
      "latitude": 44.718962
    },
    {
      "id": "_4",
      "label": "Пролетерска /Улаз/",
      "longitude": 20.435136,
      "latitude": 44.721008
    },
    {
      "id": "_5",
      "label": "Летићева",
      "longitude": 20.437043,
      "latitude": 44.722634
    },
    {
      "id": "_6",
      "label": "Кијево",
      "longitude": 20.438247,
      "latitude": 44.725349
    },
    {
      "id": "_7",
      "label": "Депонија",
      "longitude": 20.435134,
      "latitude": 44.728324
    },
    {
      "id": "_8",
      "label": "Кнежевац",
      "longitude": 20.431604,
      "latitude": 44.734658
    },
    {
      "id": "_9",
      "label": "Ослобођења",
      "longitude": 20.437395,
      "latitude": 44.738616
    },
    {
      "id": "_10",
      "label": "Мишка Крањца",
      "longitude": 20.442649,
      "latitude": 44.742837
    },
    {
      "id": "_11",
      "label": "Пилота Михајла Петровића",
      "longitude": 20.437843,
      "latitude": 44.744666
    },
    {
      "id": "_12",
      "label": "Стевана Луковића",
      "longitude": 20.43509,
      "latitude": 44.743081
    },
    {
      "id": "_13",
      "label": "Стојана Јанковића",
      "longitude": 20.431974,
      "latitude": 44.740919
    },
    {
      "id": "_14",
      "label": "Славка Родића",
      "longitude": 20.430163,
      "latitude": 44.736596
    },
    {
      "id": "_15",
      "label": "ОШ 14. октобар",
      "longitude": 20.427433,
      "latitude": 44.73264
    },
    {
      "id": "_16",
      "label": "17. октобра",
      "longitude": 20.427731,
      "latitude": 44.730161
    },
    {
      "id": "_17",
      "label": "Сретена Младеновића",
      "longitude": 20.431708,
      "latitude": 44.726796
    },
    {
      "id": "_18",
      "label": "Дом здравља Лабудово Брдо",
      "longitude": 20.428669,
      "latitude": 44.725691
    },
    {
      "id": "_19",
      "label": "11 Краишке Дивизије",
      "longitude": 20.425966,
      "latitude": 44.726213
    },
    {
      "id": "_20",
      "label": "Генерала Згоњанина",
      "longitude": 20.422388,
      "latitude": 44.724711
    },
    {
      "id": "_21",
      "label": "Милорада Драшковића",
      "longitude": 20.42117,
      "latitude": 44.721628
    },
    {
      "id": "_22",
      "label": "Расињска",
      "longitude": 20.425467,
      "latitude": 44.720092
    },
    {
      "id": "_23",
      "label": "Петлово Брдо",
      "longitude": 20.428404,
      "latitude": 44.718296
    },
    {
      "id": "_24",
      "label": "Петлово Брдо",
      "longitude": 20.428659,
      "latitude": 44.718479
    }
  ]
}