{
  "direction_a": [
    {
      "id": "_1",
      "label": "Миљаковац 1",
      "longitude": 20.449902,
      "latitude": 44.748244
    },
    {
      "id": "_2",
      "label": "ГО Раковица",
      "longitude": 20.446225,
      "latitude": 44.743747
    },
    {
      "id": "_3",
      "label": "Пилота Михајла Петровића",
      "longitude": 20.437843,
      "latitude": 44.744666
    },
    {
      "id": "_4",
      "label": "Стевана Луковића",
      "longitude": 20.43509,
      "latitude": 44.743081
    },
    {
      "id": "_5",
      "label": "Стојана Јанковића",
      "longitude": 20.431974,
      "latitude": 44.740919
    },
    {
      "id": "_6",
      "label": "Славка Родића",
      "longitude": 20.430163,
      "latitude": 44.736596
    },
    {
      "id": "_7",
      "label": "ОШ 14. октобар",
      "longitude": 20.427433,
      "latitude": 44.73264
    },
    {
      "id": "_8",
      "label": "17. октобра",
      "longitude": 20.427731,
      "latitude": 44.730161
    },
    {
      "id": "_9",
      "label": "Сретена Младеновића",
      "longitude": 20.431708,
      "latitude": 44.726796
    },
    {
      "id": "_10",
      "label": "Дом здравља Лабудово Брдо",
      "longitude": 20.428669,
      "latitude": 44.725691
    },
    {
      "id": "_11",
      "label": "Сердар Јанка Вукотића",
      "longitude": 20.425799,
      "latitude": 44.72792
    },
    {
      "id": "_12",
      "label": "Лабудово Брдо",
      "longitude": 20.421637,
      "latitude": 44.7306
    },
    {
      "id": "_13",
      "label": "Насеље Петлово Брдо",
      "longitude": 20.417646,
      "latitude": 44.723597
    },
    {
      "id": "_14",
      "label": "Орловача /Улаз/",
      "longitude": 20.411847,
      "latitude": 44.705442
    },
    {
      "id": "_15",
      "label": "Орловача /Гробље/",
      "longitude": 20.412555,
      "latitude": 44.70937
    }
  ],
  "direction_b": [
    {
      "id": "_1",
      "label": "Орловача /Гробље/",
      "longitude": 20.4116,
      "latitude": 44.709469
    },
    {
      "id": "_2",
      "label": "Орловача /Излаз/",
      "longitude": 20.411761,
      "latitude": 44.705615
    },
    {
      "id": "_3",
      "label": "Насеље Петлово Брдо",
      "longitude": 20.417077,
      "latitude": 44.721805
    },
    {
      "id": "_4",
      "label": "Лабудово Брдо",
      "longitude": 20.422079,
      "latitude": 44.730445
    },
    {
      "id": "_5",
      "label": "Сердар Јанка Вукотића",
      "longitude": 20.425928,
      "latitude": 44.727276
    },
    {
      "id": "_6",
      "label": "Дом здравља Лабудово Брдо",
      "longitude": 20.428621,
      "latitude": 44.725542
    },
    {
      "id": "_7",
      "label": "Сретена Младеновића",
      "longitude": 20.431818,
      "latitude": 44.726829
    },
    {
      "id": "_8",
      "label": "17. октобра",
      "longitude": 20.42789,
      "latitude": 44.730306
    },
    {
      "id": "_9",
      "label": "ОШ 14. октобар",
      "longitude": 20.427387,
      "latitude": 44.733507
    },
    {
      "id": "_10",
      "label": "Славка Родића",
      "longitude": 20.430654,
      "latitude": 44.737145
    },
    {
      "id": "_11",
      "label": "Стојана Јанковића",
      "longitude": 20.432835,
      "latitude": 44.741403
    },
    {
      "id": "_12",
      "label": "Стевана Луковића",
      "longitude": 20.435614,
      "latitude": 44.743224
    },
    {
      "id": "_13",
      "label": "Пилота Михајла Петровића",
      "longitude": 20.438411,
      "latitude": 44.744838
    },
    {
      "id": "_14",
      "label": "ГО Раковица",
      "longitude": 20.44556,
      "latitude": 44.743357
    },
    {
      "id": "_15",
      "label": "Миљаковац 1",
      "longitude": 20.449961,
      "latitude": 44.748109
    },
    {
      "id": "_16",
      "label": "Божидара Стојановића",
      "longitude": 20.452781,
      "latitude": 44.75011
    },
    {
      "id": "_17",
      "label": "Топлана",
      "longitude": 20.45488,
      "latitude": 44.749682
    },
    {
      "id": "_18",
      "label": "Станка Пауновића",
      "longitude": 20.452402,
      "latitude": 44.74845
    },
    {
      "id": "_19",
      "label": "Миљаковац 1",
      "longitude": 20.449902,
      "latitude": 44.748244
    }
  ]
}