{
  "direction_a": [
    {
      "id": "_1",
      "label": "Зелени венац",
      "longitude": 20.456374,
      "latitude": 44.813913
    },
    {
      "id": "_2",
      "label": "Вазнесењска Црква",
      "longitude": 20.461956,
      "latitude": 44.808041
    },
    {
      "id": "_3",
      "label": "Милоша Поцерца",
      "longitude": 20.45602,
      "latitude": 44.802401
    },
    {
      "id": "_4",
      "label": "Мостар",
      "longitude": 20.449237,
      "latitude": 44.798754
    },
    {
      "id": "_5",
      "label": "Сајам",
      "longitude": 20.44171,
      "latitude": 44.796529
    },
    {
      "id": "_6",
      "label": "Руска",
      "longitude": 20.436035,
      "latitude": 44.795118
    },
    {
      "id": "_7",
      "label": "Ада Циганлија",
      "longitude": 20.41937,
      "latitude": 44.788677
    },
    {
      "id": "_8",
      "label": "Кировљева",
      "longitude": 20.417833,
      "latitude": 44.783746
    },
    {
      "id": "_9",
      "label": "Школа Jосиф Панчић",
      "longitude": 20.417302,
      "latitude": 44.781171
    },
    {
      "id": "_10",
      "label": "Дом здравља",
      "longitude": 20.414599,
      "latitude": 44.777818
    },
    {
      "id": "_11",
      "label": "Кијевска",
      "longitude": 20.413593,
      "latitude": 44.775485
    },
    {
      "id": "_12",
      "label": "Требевићка",
      "longitude": 20.414127,
      "latitude": 44.771418
    },
    {
      "id": "_13",
      "label": "Јулино Брдо",
      "longitude": 20.413987,
      "latitude": 44.762579
    },
    {
      "id": "_14",
      "label": "Жарково споменик",
      "longitude": 20.41646,
      "latitude": 44.758657
    },
    {
      "id": "_15",
      "label": "Аце Јоксимовића",
      "longitude": 20.420151,
      "latitude": 44.756617
    },
    {
      "id": "_16",
      "label": "Ратка Митровића",
      "longitude": 20.425145,
      "latitude": 44.752844
    },
    {
      "id": "_17",
      "label": "Шавничка",
      "longitude": 20.4233,
      "latitude": 44.75
    },
    {
      "id": "_18",
      "label": "Љубице Ивошевић",
      "longitude": 20.420623,
      "latitude": 44.749
    },
    {
      "id": "_19",
      "label": "Космајска",
      "longitude": 20.416723,
      "latitude": 44.748564
    },
    {
      "id": "_20",
      "label": "Битољска",
      "longitude": 20.414448,
      "latitude": 44.74861
    },
    {
      "id": "_21",
      "label": "Вртић Плава Птица",
      "longitude": 20.412697,
      "latitude": 44.745152
    },
    {
      "id": "_22",
      "label": "Виноградски Венац",
      "longitude": 20.412222,
      "latitude": 44.742877
    },
    {
      "id": "_23",
      "label": "Церски Венац",
      "longitude": 20.414309,
      "latitude": 44.741851
    },
    {
      "id": "_24",
      "label": "Церак Виногради",
      "longitude": 20.419153,
      "latitude": 44.743672
    }
  ],
  "direction_b": [
    {
      "id": "_1",
      "label": "Церак Виногради",
      "longitude": 20.418681,
      "latitude": 44.74367
    },
    {
      "id": "_2",
      "label": "Церски Венац",
      "longitude": 20.413577,
      "latitude": 44.742014
    },
    {
      "id": "_3",
      "label": "Виноградски Венац",
      "longitude": 20.412179,
      "latitude": 44.743293
    },
    {
      "id": "_4",
      "label": "Вртић Плава Птица",
      "longitude": 20.413247,
      "latitude": 44.745872
    },
    {
      "id": "_5",
      "label": "Битољска",
      "longitude": 20.413534,
      "latitude": 44.748642
    },
    {
      "id": "_6",
      "label": "Космајска",
      "longitude": 20.417509,
      "latitude": 44.748507
    },
    {
      "id": "_7",
      "label": "Љубице Ивошевић",
      "longitude": 20.420234,
      "latitude": 44.748825
    },
    {
      "id": "_8",
      "label": "Шавничка",
      "longitude": 20.423884,
      "latitude": 44.750236
    },
    {
      "id": "_9",
      "label": "Ратка Митровића",
      "longitude": 20.424037,
      "latitude": 44.754008
    },
    {
      "id": "_10",
      "label": "Аце Јоксимовића",
      "longitude": 20.419499,
      "latitude": 44.757055
    },
    {
      "id": "_11",
      "label": "Жарково споменик",
      "longitude": 20.415454,
      "latitude": 44.759478
    },
    {
      "id": "_12",
      "label": "Јулино Брдо",
      "longitude": 20.413963,
      "latitude": 44.763575
    },
    {
      "id": "_13",
      "label": "Требевићка",
      "longitude": 20.414277,
      "latitude": 44.771319
    },
    {
      "id": "_14",
      "label": "Кијевска",
      "longitude": 20.41377,
      "latitude": 44.775855
    },
    {
      "id": "_15",
      "label": "Дом здравља",
      "longitude": 20.415811,
      "latitude": 44.778985
    },
    {
      "id": "_16",
      "label": "Школа Jосиф Панчић",
      "longitude": 20.417595,
      "latitude": 44.781329
    },
    {
      "id": "_17",
      "label": "Кировљева",
      "longitude": 20.417959,
      "latitude": 44.784695
    },
    {
      "id": "_18",
      "label": "Ада Циганлија",
      "longitude": 20.419837,
      "latitude": 44.788416
    },
    {
      "id": "_19",
      "label": "Господарска Механа",
      "longitude": 20.433393,
      "latitude": 44.794424
    },
    {
      "id": "_20",
      "label": "Руска",
      "longitude": 20.437784,
      "latitude": 44.795189
    },
    {
      "id": "_21",
      "label": "Сајам",
      "longitude": 20.441944,
      "latitude": 44.796327
    },
    {
      "id": "_22",
      "label": "Дринска",
      "longitude": 20.451763,
      "latitude": 44.800826
    },
    {
      "id": "_23",
      "label": "Милоша Поцерца",
      "longitude": 20.454923,
      "latitude": 44.803468
    },
    {
      "id": "_24",
      "label": "Немањина",
      "longitude": 20.458329,
      "latitude": 44.807818
    },
    {
      "id": "_25",
      "label": "Каменичка",
      "longitude": 20.456272,
      "latitude": 44.811736
    },
    {
      "id": "_26",
      "label": "Зелени венац",
      "longitude": 20.456374,
      "latitude": 44.813913
    }
  ]
}