{
  "direction_a": [
    {
      "id": "_1",
      "label": "Видиковац",
      "longitude": 20.420455,
      "latitude": 44.731819
    },
    {
      "id": "_2",
      "label": "Насеље Петлово Брдо",
      "longitude": 20.417752,
      "latitude": 44.723573
    },
    {
      "id": "_3",
      "label": "Насеље Виногради",
      "longitude": 20.399927,
      "latitude": 44.722573
    },
    {
      "id": "_4",
      "label": "Ново Насеље",
      "longitude": 20.391376,
      "latitude": 44.725927
    },
    {
      "id": "_5",
      "label": "Авалска",
      "longitude": 20.382653,
      "latitude": 44.728747
    },
    {
      "id": "_6",
      "label": "Железник Центар",
      "longitude": 20.375802,
      "latitude": 44.72865
    },
    {
      "id": "_7",
      "label": "Радних Акција",
      "longitude": 20.374793,
      "latitude": 44.730834
    },
    {
      "id": "_8",
      "label": "Златановићи",
      "longitude": 20.376478,
      "latitude": 44.734325
    },
    {
      "id": "_9",
      "label": "Браће Митровића",
      "longitude": 20.369879,
      "latitude": 44.732071
    },
    {
      "id": "_10",
      "label": "Иво Лола Рибар",
      "longitude": 20.368011,
      "latitude": 44.727393
    },
    {
      "id": "_11",
      "label": "Свете Милутиновића",
      "longitude": 20.369802,
      "latitude": 44.726212
    },
    {
      "id": "_12",
      "label": "Нићифоровићева",
      "longitude": 20.368821,
      "latitude": 44.723328
    },
    {
      "id": "_13",
      "label": "Железничка Рампа",
      "longitude": 20.367413,
      "latitude": 44.720355
    },
    {
      "id": "_14",
      "label": "Стевана Филиповића",
      "longitude": 20.368145,
      "latitude": 44.716726
    },
    {
      "id": "_15",
      "label": "Жикице Јовановића",
      "longitude": 20.368152,
      "latitude": 44.714751
    },
    {
      "id": "_16",
      "label": "Ђуре Јакшића",
      "longitude": 20.37369,
      "latitude": 44.714675
    },
    {
      "id": "_17",
      "label": "Градине",
      "longitude": 20.376121,
      "latitude": 44.713821
    },
    {
      "id": "_18",
      "label": "Железник /Тараиш/",
      "longitude": 20.378597,
      "latitude": 44.71305
    }
  ],
  "direction_b": [
    {
      "id": "_1",
      "label": "Железник /Тараиш/",
      "longitude": 20.378618,
      "latitude": 44.713121
    },
    {
      "id": "_2",
      "label": "Градине",
      "longitude": 20.376096,
      "latitude": 44.713921
    },
    {
      "id": "_3",
      "label": "Ђуре Јакшића",
      "longitude": 20.373412,
      "latitude": 44.71482
    },
    {
      "id": "_4",
      "label": "Жикице Јовановића",
      "longitude": 20.368584,
      "latitude": 44.714361
    },
    {
      "id": "_5",
      "label": "Стевана Филиповића",
      "longitude": 20.368213,
      "latitude": 44.717523
    },
    {
      "id": "_6",
      "label": "Железничка Рампа",
      "longitude": 20.367376,
      "latitude": 44.720658
    },
    {
      "id": "_7",
      "label": "Нићифоровићева",
      "longitude": 20.369037,
      "latitude": 44.723354
    },
    {
      "id": "_8",
      "label": "Свете Милутиновића",
      "longitude": 20.369493,
      "latitude": 44.726799
    },
    {
      "id": "_9",
      "label": "Иво Лола Рибар",
      "longitude": 20.368155,
      "latitude": 44.727538
    },
    {
      "id": "_10",
      "label": "Браће Митровића",
      "longitude": 20.370707,
      "latitude": 44.732323
    },
    {
      "id": "_11",
      "label": "Златановићи",
      "longitude": 20.37664,
      "latitude": 44.734035
    },
    {
      "id": "_12",
      "label": "Радних Акција",
      "longitude": 20.374631,
      "latitude": 44.729497
    },
    {
      "id": "_13",
      "label": "Железник Центар",
      "longitude": 20.376315,
      "latitude": 44.728545
    },
    {
      "id": "_14",
      "label": "Авалска",
      "longitude": 20.383335,
      "latitude": 44.728643
    },
    {
      "id": "_15",
      "label": "Ново Насеље",
      "longitude": 20.390916,
      "latitude": 44.726055
    },
    {
      "id": "_16",
      "label": "Насеље Виногради",
      "longitude": 20.399543,
      "latitude": 44.722629
    },
    {
      "id": "_17",
      "label": "Насеље Петлово Брдо",
      "longitude": 20.417094,
      "latitude": 44.721805
    },
    {
      "id": "_18",
      "label": "Видиковац",
      "longitude": 20.420455,
      "latitude": 44.731819
    }
  ]
}