{
  "direction_a": [
    {
      "id": "_1",
      "label": "Видиковац",
      "longitude": 20.420457,
      "latitude": 44.73184
    },
    {
      "id": "_2",
      "label": "Насеље Петлово Брдо",
      "longitude": 20.417646,
      "latitude": 44.723597
    },
    {
      "id": "_3",
      "label": "Насеље Виногради",
      "longitude": 20.399946,
      "latitude": 44.722588
    },
    {
      "id": "_4",
      "label": "Ново Насеље",
      "longitude": 20.391376,
      "latitude": 44.725927
    },
    {
      "id": "_5",
      "label": "Авалска",
      "longitude": 20.382611,
      "latitude": 44.728744
    },
    {
      "id": "_6",
      "label": "Железник Центар",
      "longitude": 20.375776,
      "latitude": 44.728648
    },
    {
      "id": "_7",
      "label": "Радних Акција",
      "longitude": 20.374808,
      "latitude": 44.730834
    },
    {
      "id": "_8",
      "label": "Златановићи",
      "longitude": 20.376511,
      "latitude": 44.734317
    },
    {
      "id": "_9",
      "label": "Браће Митровића",
      "longitude": 20.369843,
      "latitude": 44.73206
    },
    {
      "id": "_10",
      "label": "Иво Лола Рибар",
      "longitude": 20.368011,
      "latitude": 44.727393
    },
    {
      "id": "_11",
      "label": "Свете Милутиновића",
      "longitude": 20.369765,
      "latitude": 44.726181
    },
    {
      "id": "_12",
      "label": "Нићифоровићева",
      "longitude": 20.368821,
      "latitude": 44.723328
    },
    {
      "id": "_13",
      "label": "Железничка Рампа",
      "longitude": 20.367306,
      "latitude": 44.720503
    },
    {
      "id": "_14",
      "label": "Стевана Филиповића",
      "longitude": 20.368084,
      "latitude": 44.717117
    },
    {
      "id": "_15",
      "label": "Жикице Јовановића",
      "longitude": 20.368108,
      "latitude": 44.7147
    },
    {
      "id": "_16",
      "label": "Ђуре Јакшића",
      "longitude": 20.373727,
      "latitude": 44.714669
    },
    {
      "id": "_17",
      "label": "Градине",
      "longitude": 20.376126,
      "latitude": 44.713799
    },
    {
      "id": "_18",
      "label": "Железник /Тараиш/",
      "longitude": 20.378598,
      "latitude": 44.713064
    }
  ],
  "direction_b": [
    {
      "id": "_1",
      "label": "Железник /Тараиш/",
      "longitude": 20.378627,
      "latitude": 44.713143
    },
    {
      "id": "_2",
      "label": "Градине",
      "longitude": 20.376089,
      "latitude": 44.713923
    },
    {
      "id": "_3",
      "label": "Ђуре Јакшића",
      "longitude": 20.373404,
      "latitude": 44.714837
    },
    {
      "id": "_4",
      "label": "Жикице Јовановића",
      "longitude": 20.368555,
      "latitude": 44.714368
    },
    {
      "id": "_5",
      "label": "Стевана Филиповића",
      "longitude": 20.368237,
      "latitude": 44.716779
    },
    {
      "id": "_6",
      "label": "Железничка Рампа",
      "longitude": 20.367282,
      "latitude": 44.720719
    },
    {
      "id": "_7",
      "label": "Нићифоровићева",
      "longitude": 20.368754,
      "latitude": 44.723008
    },
    {
      "id": "_8",
      "label": "Свете Милутиновића",
      "longitude": 20.369433,
      "latitude": 44.726793
    },
    {
      "id": "_9",
      "label": "Иво Лола Рибар",
      "longitude": 20.36814,
      "latitude": 44.727543
    },
    {
      "id": "_10",
      "label": "Браће Митровића",
      "longitude": 20.370659,
      "latitude": 44.732317
    },
    {
      "id": "_11",
      "label": "Златановићи",
      "longitude": 20.376643,
      "latitude": 44.734028
    },
    {
      "id": "_12",
      "label": "Радних Акција 1",
      "longitude": 20.375412,
      "latitude": 44.731599
    },
    {
      "id": "_13",
      "label": "Нови Железник",
      "longitude": 20.380025,
      "latitude": 44.731759
    },
    {
      "id": "_14",
      "label": "МЗ Нови Железник",
      "longitude": 20.382849,
      "latitude": 44.729306
    },
    {
      "id": "_15",
      "label": "Авалска",
      "longitude": 20.383335,
      "latitude": 44.728643
    },
    {
      "id": "_16",
      "label": "Ново Насеље",
      "longitude": 20.390865,
      "latitude": 44.726031
    },
    {
      "id": "_17",
      "label": "Насеље Виногради",
      "longitude": 20.399616,
      "latitude": 44.722606
    },
    {
      "id": "_18",
      "label": "Насеље Петлово Брдо",
      "longitude": 20.417077,
      "latitude": 44.721805
    },
    {
      "id": "_19",
      "label": "Видиковац",
      "longitude": 20.420457,
      "latitude": 44.73184
    }
  ]
}