{
  "direction_a": [
    {
      "id": "_1",
      "label": "Звездара",
      "longitude": 20.503747,
      "latitude": 44.792766
    },
    {
      "id": "_2",
      "label": "Школа Војислав Илић",
      "longitude": 20.496881,
      "latitude": 44.791372
    },
    {
      "id": "_3",
      "label": "Бачванска",
      "longitude": 20.494381,
      "latitude": 44.791025
    },
    {
      "id": "_4",
      "label": "Грчића Миленка",
      "longitude": 20.490941,
      "latitude": 44.791443
    },
    {
      "id": "_5",
      "label": "Ђердапска",
      "longitude": 20.486804,
      "latitude": 44.792901
    },
    {
      "id": "_6",
      "label": "МПИ",
      "longitude": 20.481209,
      "latitude": 44.793643
    },
    {
      "id": "_7",
      "label": "Максима Горког",
      "longitude": 20.476673,
      "latitude": 44.793299
    },
    {
      "id": "_8",
      "label": "Михајла Гавриловића",
      "longitude": 20.472156,
      "latitude": 44.792511
    },
    {
      "id": "_9",
      "label": "Франше Д'Епереа",
      "longitude": 20.468232,
      "latitude": 44.790862
    },
    {
      "id": "_10",
      "label": "Делиградска",
      "longitude": 20.457594,
      "latitude": 44.795771
    },
    {
      "id": "_11",
      "label": "Мостар",
      "longitude": 20.449237,
      "latitude": 44.798754
    },
    {
      "id": "_12",
      "label": "Сајам",
      "longitude": 20.44171,
      "latitude": 44.796529
    },
    {
      "id": "_13",
      "label": "Чукарица",
      "longitude": 20.414529,
      "latitude": 44.786454
    },
    {
      "id": "_14",
      "label": "Светолика Лазаревића Лазе",
      "longitude": 20.412434,
      "latitude": 44.783756
    },
    {
      "id": "_15",
      "label": "Обалских Радника",
      "longitude": 20.4094,
      "latitude": 44.780672
    },
    {
      "id": "_16",
      "label": "МЗ Чукаричка Падина",
      "longitude": 20.407869,
      "latitude": 44.776714
    },
    {
      "id": "_17",
      "label": "Инос",
      "longitude": 20.407445,
      "latitude": 44.769242
    },
    {
      "id": "_18",
      "label": "Контактор",
      "longitude": 20.406555,
      "latitude": 44.767027
    },
    {
      "id": "_19",
      "label": "Атекс",
      "longitude": 20.404556,
      "latitude": 44.762489
    },
    {
      "id": "_20",
      "label": "Беле Воде",
      "longitude": 20.403642,
      "latitude": 44.755067
    },
    {
      "id": "_21",
      "label": "Железнички Тунел",
      "longitude": 20.400286,
      "latitude": 44.749474
    },
    {
      "id": "_22",
      "label": "Рупчине",
      "longitude": 20.396317,
      "latitude": 44.746367
    },
    {
      "id": "_23",
      "label": "Савска Тераса",
      "longitude": 20.392089,
      "latitude": 44.743491
    },
    {
      "id": "_24",
      "label": "Пут за ЖТП",
      "longitude": 20.389375,
      "latitude": 44.740906
    },
    {
      "id": "_25",
      "label": "Ранжирна Станица",
      "longitude": 20.385679,
      "latitude": 44.73797
    },
    {
      "id": "_26",
      "label": "Железник Улаз",
      "longitude": 20.380693,
      "latitude": 44.735518
    },
    {
      "id": "_27",
      "label": "Златановићи",
      "longitude": 20.376511,
      "latitude": 44.734317
    },
    {
      "id": "_28",
      "label": "Браће Митровића",
      "longitude": 20.369843,
      "latitude": 44.73206
    },
    {
      "id": "_29",
      "label": "Иво Лола Рибар",
      "longitude": 20.368011,
      "latitude": 44.727393
    },
    {
      "id": "_30",
      "label": "Милорада Ћирића",
      "longitude": 20.370455,
      "latitude": 44.725944
    },
    {
      "id": "_31",
      "label": "МЗ Железник",
      "longitude": 20.3728,
      "latitude": 44.724237
    },
    {
      "id": "_32",
      "label": "Црква",
      "longitude": 20.376436,
      "latitude": 44.722257
    },
    {
      "id": "_33",
      "label": "Градине",
      "longitude": 20.379378,
      "latitude": 44.71969
    },
    {
      "id": "_34",
      "label": "Трафостаница",
      "longitude": 20.381125,
      "latitude": 44.718552
    },
    {
      "id": "_35",
      "label": "Стари Железник",
      "longitude": 20.382863,
      "latitude": 44.720702
    }
  ],
  "direction_b": [
    {
      "id": "_1",
      "label": "Стари Железник",
      "longitude": 20.382863,
      "latitude": 44.720702
    },
    {
      "id": "_2",
      "label": "Трафостаница",
      "longitude": 20.380669,
      "latitude": 44.718697
    },
    {
      "id": "_3",
      "label": "Градине",
      "longitude": 20.379116,
      "latitude": 44.720092
    },
    {
      "id": "_4",
      "label": "Црква",
      "longitude": 20.375656,
      "latitude": 44.722859
    },
    {
      "id": "_5",
      "label": "МЗ Железник",
      "longitude": 20.372928,
      "latitude": 44.724264
    },
    {
      "id": "_6",
      "label": "Свете Милутиновића",
      "longitude": 20.37208,
      "latitude": 44.725213
    },
    {
      "id": "_7",
      "label": "Иво Лола Рибар",
      "longitude": 20.36814,
      "latitude": 44.727543
    },
    {
      "id": "_8",
      "label": "Браће Митровића",
      "longitude": 20.370659,
      "latitude": 44.732317
    },
    {
      "id": "_9",
      "label": "Златановићи",
      "longitude": 20.376098,
      "latitude": 44.734195
    },
    {
      "id": "_10",
      "label": "Железник Улаз",
      "longitude": 20.380985,
      "latitude": 44.735533
    },
    {
      "id": "_11",
      "label": "Ранжирна Станица",
      "longitude": 20.385188,
      "latitude": 44.737501
    },
    {
      "id": "_12",
      "label": "Пут за ЖТП",
      "longitude": 20.390789,
      "latitude": 44.741797
    },
    {
      "id": "_13",
      "label": "Савска Тераса",
      "longitude": 20.393227,
      "latitude": 44.744165
    },
    {
      "id": "_14",
      "label": "Рупчине",
      "longitude": 20.396885,
      "latitude": 44.746631
    },
    {
      "id": "_15",
      "label": "Железнички Тунел",
      "longitude": 20.400605,
      "latitude": 44.749634
    },
    {
      "id": "_16",
      "label": "Беле Воде",
      "longitude": 20.40376,
      "latitude": 44.755259
    },
    {
      "id": "_17",
      "label": "Атекс",
      "longitude": 20.405275,
      "latitude": 44.763693
    },
    {
      "id": "_18",
      "label": "Контактор",
      "longitude": 20.40645,
      "latitude": 44.766423
    },
    {
      "id": "_19",
      "label": "Инос",
      "longitude": 20.40785,
      "latitude": 44.769826
    },
    {
      "id": "_20",
      "label": "МЗ Чукаричка Падина",
      "longitude": 20.408218,
      "latitude": 44.777233
    },
    {
      "id": "_21",
      "label": "Обалских Радника",
      "longitude": 20.409831,
      "latitude": 44.78125
    },
    {
      "id": "_22",
      "label": "Светолика Лазаревића Лазе",
      "longitude": 20.412726,
      "latitude": 44.784243
    },
    {
      "id": "_23",
      "label": "Чукарица",
      "longitude": 20.41495,
      "latitude": 44.786366
    },
    {
      "id": "_24",
      "label": "Господарска Механа",
      "longitude": 20.433393,
      "latitude": 44.794424
    },
    {
      "id": "_25",
      "label": "Руска",
      "longitude": 20.437784,
      "latitude": 44.795189
    },
    {
      "id": "_26",
      "label": "Сајам",
      "longitude": 20.441944,
      "latitude": 44.796327
    },
    {
      "id": "_27",
      "label": "Мостар",
      "longitude": 20.448743,
      "latitude": 44.79823
    },
    {
      "id": "_28",
      "label": "Делиградска",
      "longitude": 20.457356,
      "latitude": 44.795314
    },
    {
      "id": "_29",
      "label": "Франше Д'Епереа",
      "longitude": 20.466416,
      "latitude": 44.791513
    },
    {
      "id": "_30",
      "label": "Михајла Гавриловића",
      "longitude": 20.471443,
      "latitude": 44.792105
    },
    {
      "id": "_31",
      "label": "Максима Горког",
      "longitude": 20.479063,
      "latitude": 44.79344
    },
    {
      "id": "_32",
      "label": "Ђердапска",
      "longitude": 20.48487,
      "latitude": 44.793175
    },
    {
      "id": "_33",
      "label": "Грчића Миленка",
      "longitude": 20.489145,
      "latitude": 44.791623
    },
    {
      "id": "_34",
      "label": "Бачванска",
      "longitude": 20.493625,
      "latitude": 44.79088
    },
    {
      "id": "_35",
      "label": "Школа Војислав Илић",
      "longitude": 20.496564,
      "latitude": 44.791218
    },
    {
      "id": "_36",
      "label": "Звездара",
      "longitude": 20.503747,
      "latitude": 44.792766
    }
  ]
}