{
  "direction_a": [
    {
      "id": "_1",
      "label": "Зелени венац",
      "longitude": 20.456374,
      "latitude": 44.813913
    },
    {
      "id": "_2",
      "label": "Вазнесењска Црква",
      "longitude": 20.461956,
      "latitude": 44.808041
    },
    {
      "id": "_3",
      "label": "Милоша Поцерца",
      "longitude": 20.45602,
      "latitude": 44.802401
    },
    {
      "id": "_4",
      "label": "Мостар",
      "longitude": 20.449237,
      "latitude": 44.798754
    },
    {
      "id": "_5",
      "label": "Сајам",
      "longitude": 20.44171,
      "latitude": 44.796529
    },
    {
      "id": "_6",
      "label": "Чукарица",
      "longitude": 20.414529,
      "latitude": 44.786454
    },
    {
      "id": "_7",
      "label": "Светолика Лазаревића Лазе",
      "longitude": 20.412434,
      "latitude": 44.783756
    },
    {
      "id": "_8",
      "label": "Обалских Радника",
      "longitude": 20.4094,
      "latitude": 44.780672
    },
    {
      "id": "_9",
      "label": "Стругарска",
      "longitude": 20.406788,
      "latitude": 44.7773
    },
    {
      "id": "_10",
      "label": "Чукаричка Падина",
      "longitude": 20.404825,
      "latitude": 44.778126
    }
  ],
  "direction_b": [
    {
      "id": "_1",
      "label": "Чукаричка Падина",
      "longitude": 20.404825,
      "latitude": 44.778126
    },
    {
      "id": "_2",
      "label": "Обалских Радника",
      "longitude": 20.405629,
      "latitude": 44.776043
    },
    {
      "id": "_3",
      "label": "Стевана Ђурђевића",
      "longitude": 20.407534,
      "latitude": 44.776439
    },
    {
      "id": "_4",
      "label": "МЗ Чукаричка Падина",
      "longitude": 20.408218,
      "latitude": 44.777233
    },
    {
      "id": "_5",
      "label": "Обалских Радника",
      "longitude": 20.409831,
      "latitude": 44.78125
    },
    {
      "id": "_6",
      "label": "Светолика Лазаревића Лазе",
      "longitude": 20.412726,
      "latitude": 44.784243
    },
    {
      "id": "_7",
      "label": "Чукарица",
      "longitude": 20.41495,
      "latitude": 44.786366
    },
    {
      "id": "_8",
      "label": "Господарска Механа",
      "longitude": 20.433393,
      "latitude": 44.794424
    },
    {
      "id": "_9",
      "label": "Руска",
      "longitude": 20.437784,
      "latitude": 44.795189
    },
    {
      "id": "_10",
      "label": "Сајам",
      "longitude": 20.441944,
      "latitude": 44.796327
    },
    {
      "id": "_11",
      "label": "Дринска",
      "longitude": 20.451763,
      "latitude": 44.800826
    },
    {
      "id": "_12",
      "label": "Милоша Поцерца",
      "longitude": 20.454923,
      "latitude": 44.803468
    },
    {
      "id": "_13",
      "label": "Немањина",
      "longitude": 20.458329,
      "latitude": 44.807818
    },
    {
      "id": "_14",
      "label": "Зелени венац",
      "longitude": 20.456374,
      "latitude": 44.813913
    }
  ]
}