{
  "direction_a": [
    {
      "id": "_1",
      "label": "Славија /Бирчанинова/",
      "longitude": 20.465362,
      "latitude": 44.800531
    },
    {
      "id": "_2",
      "label": "Карађорђев парк",
      "longitude": 20.465196,
      "latitude": 44.797029
    },
    {
      "id": "_3",
      "label": "Франше Д'Епереа",
      "longitude": 20.466411,
      "latitude": 44.792716
    },
    {
      "id": "_4",
      "label": "Трг Ослобођења",
      "longitude": 20.464053,
      "latitude": 44.787082
    },
    {
      "id": "_5",
      "label": "Стадион Црвена Звезда",
      "longitude": 20.46275,
      "latitude": 44.784219
    },
    {
      "id": "_6",
      "label": "Народног Хероја Милана Тепића",
      "longitude": 20.458713,
      "latitude": 44.779737
    },
    {
      "id": "_7",
      "label": "Драгише Мишовић болница",
      "longitude": 20.458083,
      "latitude": 44.777662
    },
    {
      "id": "_8",
      "label": "Паје Адамова",
      "longitude": 20.462581,
      "latitude": 44.772754
    },
    {
      "id": "_9",
      "label": "Бањица",
      "longitude": 20.465998,
      "latitude": 44.769389
    },
    {
      "id": "_10",
      "label": "Војномедицинска академија",
      "longitude": 20.470045,
      "latitude": 44.765668
    },
    {
      "id": "_11",
      "label": "Пливалиште Бањица",
      "longitude": 20.472411,
      "latitude": 44.763076
    },
    {
      "id": "_12",
      "label": "Пет Солитера",
      "longitude": 20.472953,
      "latitude": 44.759369
    },
    {
      "id": "_13",
      "label": "Рашка",
      "longitude": 20.467712,
      "latitude": 44.754768
    },
    {
      "id": "_14",
      "label": "Пере Велимировића",
      "longitude": 20.460102,
      "latitude": 44.757166
    },
    {
      "id": "_15",
      "label": "Српских Ударних Бригада",
      "longitude": 20.456412,
      "latitude": 44.754304
    },
    {
      "id": "_16",
      "label": "Канарево Брдо",
      "longitude": 20.455095,
      "latitude": 44.752066
    },
    {
      "id": "_17",
      "label": "Варешка",
      "longitude": 20.455754,
      "latitude": 44.749855
    },
    {
      "id": "_18",
      "label": "Станка Пауновића",
      "longitude": 20.452402,
      "latitude": 44.74845
    },
    {
      "id": "_19",
      "label": "Миљаковац 1",
      "longitude": 20.449902,
      "latitude": 44.748244
    },
    {
      "id": "_20",
      "label": "ГО Раковица",
      "longitude": 20.446225,
      "latitude": 44.743747
    },
    {
      "id": "_21",
      "label": "Маричка",
      "longitude": 20.438006,
      "latitude": 44.745404
    },
    {
      "id": "_22",
      "label": "Јанковић Стојана",
      "longitude": 20.434393,
      "latitude": 44.745093
    },
    {
      "id": "_23",
      "label": "Пилота Михајла Петровића",
      "longitude": 20.424493,
      "latitude": 44.742836
    },
    {
      "id": "_24",
      "label": "МЗ Видиковац",
      "longitude": 20.42261,
      "latitude": 44.740176
    },
    {
      "id": "_25",
      "label": "Видиковачки Венац",
      "longitude": 20.420062,
      "latitude": 44.738503
    },
    {
      "id": "_26",
      "label": "Топлана",
      "longitude": 20.420558,
      "latitude": 44.734031
    },
    {
      "id": "_27",
      "label": "Лабудово Брдо",
      "longitude": 20.422079,
      "latitude": 44.730445
    },
    {
      "id": "_28",
      "label": "Сердар Јанка Вукотића",
      "longitude": 20.425928,
      "latitude": 44.727276
    },
    {
      "id": "_29",
      "label": "11 Краишке Дивизије",
      "longitude": 20.425966,
      "latitude": 44.726213
    },
    {
      "id": "_30",
      "label": "Генерала Згоњанина",
      "longitude": 20.422388,
      "latitude": 44.724711
    },
    {
      "id": "_31",
      "label": "Милорада Драшковића",
      "longitude": 20.42117,
      "latitude": 44.721628
    },
    {
      "id": "_32",
      "label": "Расињска",
      "longitude": 20.425467,
      "latitude": 44.720092
    },
    {
      "id": "_33",
      "label": "Петлово Брдо",
      "longitude": 20.428404,
      "latitude": 44.718296
    }
  ],
  "direction_b": [
    {
      "id": "_1",
      "label": "Петлово Брдо",
      "longitude": 20.428659,
      "latitude": 44.718479
    },
    {
      "id": "_2",
      "label": "Расињска",
      "longitude": 20.425097,
      "latitude": 44.720277
    },
    {
      "id": "_3",
      "label": "Милорада Драшковића",
      "longitude": 20.421224,
      "latitude": 44.722339
    },
    {
      "id": "_4",
      "label": "Генерала Згоњанина",
      "longitude": 20.423069,
      "latitude": 44.72499
    },
    {
      "id": "_5",
      "label": "11 Краишке Дивизије",
      "longitude": 20.426194,
      "latitude": 44.726104
    },
    {
      "id": "_6",
      "label": "Сердар Јанка Вукотића",
      "longitude": 20.425799,
      "latitude": 44.72792
    },
    {
      "id": "_7",
      "label": "Лабудово Брдо",
      "longitude": 20.421637,
      "latitude": 44.7306
    },
    {
      "id": "_8",
      "label": "Топлана",
      "longitude": 20.420591,
      "latitude": 44.734574
    },
    {
      "id": "_9",
      "label": "Видиковачки Венац",
      "longitude": 20.420926,
      "latitude": 44.739025
    },
    {
      "id": "_10",
      "label": "МЗ Видиковац",
      "longitude": 20.42309,
      "latitude": 44.740405
    },
    {
      "id": "_11",
      "label": "Пилота Михајла Петровића",
      "longitude": 20.425357,
      "latitude": 44.743295
    },
    {
      "id": "_12",
      "label": "Јанковић Стојана",
      "longitude": 20.433822,
      "latitude": 44.744923
    },
    {
      "id": "_13",
      "label": "Маричка",
      "longitude": 20.438323,
      "latitude": 44.745289
    },
    {
      "id": "_14",
      "label": "ГО Раковица",
      "longitude": 20.44556,
      "latitude": 44.743357
    },
    {
      "id": "_15",
      "label": "Миљаковац 1",
      "longitude": 20.449961,
      "latitude": 44.748109
    },
    {
      "id": "_16",
      "label": "Станка Пауновића",
      "longitude": 20.453306,
      "latitude": 44.748416
    },
    {
      "id": "_17",
      "label": "Варешка",
      "longitude": 20.455706,
      "latitude": 44.748869
    },
    {
      "id": "_18",
      "label": "Канарево Брдо",
      "longitude": 20.455151,
      "latitude": 44.752675
    },
    {
      "id": "_19",
      "label": "Српских Ударних Бригада",
      "longitude": 20.457104,
      "latitude": 44.754807
    },
    {
      "id": "_20",
      "label": "Пере Велимировића",
      "longitude": 20.461073,
      "latitude": 44.757124
    },
    {
      "id": "_21",
      "label": "Рашка",
      "longitude": 20.469646,
      "latitude": 44.754435
    },
    {
      "id": "_22",
      "label": "Пет Солитера",
      "longitude": 20.473132,
      "latitude": 44.760023
    },
    {
      "id": "_23",
      "label": "Пливалиште Бањица",
      "longitude": 20.471783,
      "latitude": 44.763976
    },
    {
      "id": "_24",
      "label": "Војномедицинска академија",
      "longitude": 20.469487,
      "latitude": 44.76654
    },
    {
      "id": "_25",
      "label": "Бањица",
      "longitude": 20.465738,
      "latitude": 44.769939
    },
    {
      "id": "_26",
      "label": "Паје Адамова",
      "longitude": 20.462267,
      "latitude": 44.773346
    },
    {
      "id": "_27",
      "label": "Драгише Мишовић болница",
      "longitude": 20.458482,
      "latitude": 44.777658
    },
    {
      "id": "_28",
      "label": "Шекспирова",
      "longitude": 20.459853,
      "latitude": 44.781393
    },
    {
      "id": "_29",
      "label": "Стадион Црвена Звезда",
      "longitude": 20.462964,
      "latitude": 44.782966
    },
    {
      "id": "_30",
      "label": "Трг Ослобођења",
      "longitude": 20.464423,
      "latitude": 44.787287
    },
    {
      "id": "_31",
      "label": "Франше Д'Епереа",
      "longitude": 20.466738,
      "latitude": 44.792674
    },
    {
      "id": "_32",
      "label": "Карађорђев парк",
      "longitude": 20.465713,
      "latitude": 44.798107
    },
    {
      "id": "_33",
      "label": "Трг Славија /Булевар Ослобођења/",
      "longitude": 20.466314,
      "latitude": 44.801565
    },
    {
      "id": "_34",
      "label": "Славија /Бирчанинова/",
      "longitude": 20.465362,
      "latitude": 44.800531
    }
  ]
}