{
  "direction_a": [
    {
      "id": "_1",
      "label": "Дорћол /СРЦ Милалн Мушкатировић/",
      "longitude": 20.456226,
      "latitude": 44.829748
    },
    {
      "id": "_2",
      "label": "Браће Барух",
      "longitude": 20.456795,
      "latitude": 44.825091
    },
    {
      "id": "_3",
      "label": "Краља Петра",
      "longitude": 20.46018,
      "latitude": 44.823291
    },
    {
      "id": "_4",
      "label": "Дорћол /Кнегиње Љубице/",
      "longitude": 20.46335,
      "latitude": 44.82155
    },
    {
      "id": "_5",
      "label": "Пијаца Скадарлија",
      "longitude": 20.467213,
      "latitude": 44.818129
    },
    {
      "id": "_6",
      "label": "Булевар Деспота Стефана",
      "longitude": 20.469334,
      "latitude": 44.8164
    },
    {
      "id": "_7",
      "label": "Таковска",
      "longitude": 20.471917,
      "latitude": 44.813621
    },
    {
      "id": "_8",
      "label": "27. марта",
      "longitude": 20.471384,
      "latitude": 44.812965
    },
    {
      "id": "_9",
      "label": "Главна пошта",
      "longitude": 20.467285,
      "latitude": 44.811129
    },
    {
      "id": "_10",
      "label": "Ресавска",
      "longitude": 20.467983,
      "latitude": 44.809139
    },
    {
      "id": "_11",
      "label": "Правни факултет",
      "longitude": 20.472006,
      "latitude": 44.806772
    },
    {
      "id": "_12",
      "label": "Вуков Споменик",
      "longitude": 20.478223,
      "latitude": 44.805447
    },
    {
      "id": "_13",
      "label": "Вуков Споменик",
      "longitude": 20.479513,
      "latitude": 44.804819
    }
  ],
  "direction_b": [
    {
      "id": "_1",
      "label": "Вуков Споменик",
      "longitude": 20.479513,
      "latitude": 44.804819
    },
    {
      "id": "_2",
      "label": "Технички Факултет",
      "longitude": 20.47648,
      "latitude": 44.805093
    },
    {
      "id": "_3",
      "label": "Правни факултет",
      "longitude": 20.472172,
      "latitude": 44.806962
    },
    {
      "id": "_4",
      "label": "Ташмајдан /Парк/",
      "longitude": 20.46898,
      "latitude": 44.808856
    },
    {
      "id": "_5",
      "label": "Главна пошта",
      "longitude": 20.467218,
      "latitude": 44.809936
    },
    {
      "id": "_6",
      "label": "Главна пошта",
      "longitude": 20.468385,
      "latitude": 44.811268
    },
    {
      "id": "_7",
      "label": "Булевар Деспота Стефана",
      "longitude": 20.469329,
      "latitude": 44.816549
    },
    {
      "id": "_8",
      "label": "Пијаца Скадарлија",
      "longitude": 20.466966,
      "latitude": 44.818499
    },
    {
      "id": "_9",
      "label": "Дорћол /Кнегиње Љубице/",
      "longitude": 20.46408,
      "latitude": 44.821267
    },
    {
      "id": "_10",
      "label": "Краља Петра",
      "longitude": 20.460231,
      "latitude": 44.82334
    },
    {
      "id": "_11",
      "label": "Браће Барух",
      "longitude": 20.457018,
      "latitude": 44.825085
    },
    {
      "id": "_12",
      "label": "Солунска",
      "longitude": 20.456016,
      "latitude": 44.826849
    },
    {
      "id": "_13",
      "label": "Дорћол /СРЦ Милалн Мушкатировић/",
      "longitude": 20.455862,
      "latitude": 44.829841
    },
    {
      "id": "_14",
      "label": "Дорћол /СРЦ Милалн Мушкатировић/",
      "longitude": 20.456226,
      "latitude": 44.829748
    }
  ]
}