{
  "direction_a": [
    {
      "id": "_1",
      "label": "Дорћол /СРЦ Милалн Мушкатировић/",
      "longitude": 20.456261,
      "latitude": 44.829766
    },
    {
      "id": "_2",
      "label": "Браће Барух",
      "longitude": 20.456947,
      "latitude": 44.82494
    },
    {
      "id": "_3",
      "label": "Краља Петра",
      "longitude": 20.460279,
      "latitude": 44.823157
    },
    {
      "id": "_4",
      "label": "Дорћол /Кнегиње Љубице/",
      "longitude": 20.463047,
      "latitude": 44.821661
    },
    {
      "id": "_5",
      "label": "Пијаца Скадарлија",
      "longitude": 20.467158,
      "latitude": 44.818104
    },
    {
      "id": "_6",
      "label": "Булевар Деспота Стефана",
      "longitude": 20.469302,
      "latitude": 44.816371
    },
    {
      "id": "_7",
      "label": "Таковска",
      "longitude": 20.47179,
      "latitude": 44.813666
    },
    {
      "id": "_8",
      "label": "Палилулска Пијаца",
      "longitude": 20.474163,
      "latitude": 44.810844
    },
    {
      "id": "_9",
      "label": "Машински Факултет",
      "longitude": 20.477037,
      "latitude": 44.807615
    },
    {
      "id": "_10",
      "label": "Далматинска",
      "longitude": 20.480195,
      "latitude": 44.806702
    },
    {
      "id": "_11",
      "label": "Ново Гробље",
      "longitude": 20.4867,
      "latitude": 44.810848
    },
    {
      "id": "_12",
      "label": "Ватрогасна Команда",
      "longitude": 20.488902,
      "latitude": 44.812648
    },
    {
      "id": "_13",
      "label": "Омладински Стадион",
      "longitude": 20.491066,
      "latitude": 44.814554
    }
  ],
  "direction_b": [
    {
      "id": "_1",
      "label": "Омладински Стадион",
      "longitude": 20.490454,
      "latitude": 44.814262
    },
    {
      "id": "_2",
      "label": "Ватрогасна Команда",
      "longitude": 20.487953,
      "latitude": 44.812082
    },
    {
      "id": "_3",
      "label": "Ново Гробље",
      "longitude": 20.484837,
      "latitude": 44.809874
    },
    {
      "id": "_4",
      "label": "Далматинска",
      "longitude": 20.480474,
      "latitude": 44.807116
    },
    {
      "id": "_5",
      "label": "Машински Факултет",
      "longitude": 20.477381,
      "latitude": 44.807561
    },
    {
      "id": "_6",
      "label": "Палилулска Пијаца",
      "longitude": 20.474696,
      "latitude": 44.810584
    },
    {
      "id": "_7",
      "label": "Таковска",
      "longitude": 20.472556,
      "latitude": 44.813108
    },
    {
      "id": "_8",
      "label": "Булевар Деспота Стефана",
      "longitude": 20.46942,
      "latitude": 44.816567
    },
    {
      "id": "_9",
      "label": "Пијаца Скадарлија",
      "longitude": 20.467069,
      "latitude": 44.818513
    },
    {
      "id": "_10",
      "label": "Дорћол /Кнегиње Љубице/",
      "longitude": 20.464324,
      "latitude": 44.821208
    },
    {
      "id": "_11",
      "label": "Краља Петра",
      "longitude": 20.460245,
      "latitude": 44.82341
    },
    {
      "id": "_12",
      "label": "Браће Барух",
      "longitude": 20.45714,
      "latitude": 44.825098
    },
    {
      "id": "_13",
      "label": "Солунска",
      "longitude": 20.456064,
      "latitude": 44.8269
    },
    {
      "id": "_14",
      "label": "Дорћол /СРЦ Милалн Мушкатировић/",
      "longitude": 20.455852,
      "latitude": 44.829556
    },
    {
      "id": "_15",
      "label": "Дорћол /СРЦ Милалн Мушкатировић/",
      "longitude": 20.456261,
      "latitude": 44.829766
    }
  ]
}