{
  "direction_a": [
    {
      "id": "_1",
      "label": "Дорћол /СРЦ Милалн Мушкатировић/",
      "longitude": 20.456261,
      "latitude": 44.829766
    },
    {
      "id": "_2",
      "label": "Браће Барух",
      "longitude": 20.456947,
      "latitude": 44.82494
    },
    {
      "id": "_3",
      "label": "Краља Петра",
      "longitude": 20.460279,
      "latitude": 44.823157
    },
    {
      "id": "_4",
      "label": "Дорћол /Кнегиње Љубице/",
      "longitude": 20.463047,
      "latitude": 44.821661
    },
    {
      "id": "_5",
      "label": "Пијаца Скадарлија",
      "longitude": 20.467158,
      "latitude": 44.818104
    },
    {
      "id": "_6",
      "label": "Булевар Деспота Стефана",
      "longitude": 20.469302,
      "latitude": 44.816371
    },
    {
      "id": "_7",
      "label": "Таковска",
      "longitude": 20.47179,
      "latitude": 44.813666
    },
    {
      "id": "_8",
      "label": "27. марта",
      "longitude": 20.471343,
      "latitude": 44.812951
    },
    {
      "id": "_9",
      "label": "Главна пошта",
      "longitude": 20.467249,
      "latitude": 44.811134
    },
    {
      "id": "_10",
      "label": "Ресавска",
      "longitude": 20.467976,
      "latitude": 44.809155
    },
    {
      "id": "_11",
      "label": "Правни факултет",
      "longitude": 20.472006,
      "latitude": 44.806772
    },
    {
      "id": "_12",
      "label": "Вуков Споменик",
      "longitude": 20.478154,
      "latitude": 44.805407
    },
    {
      "id": "_13",
      "label": "Вуков Споменик",
      "longitude": 20.47948,
      "latitude": 44.804889
    }
  ],
  "direction_b": [
    {
      "id": "_1",
      "label": "Вуков Споменик",
      "longitude": 20.47948,
      "latitude": 44.804889
    },
    {
      "id": "_2",
      "label": "Технички Факултет",
      "longitude": 20.476439,
      "latitude": 44.805195
    },
    {
      "id": "_3",
      "label": "Правни факултет",
      "longitude": 20.472328,
      "latitude": 44.806937
    },
    {
      "id": "_4",
      "label": "Ташмајдан /Парк/",
      "longitude": 20.468969,
      "latitude": 44.808882
    },
    {
      "id": "_5",
      "label": "Главна пошта",
      "longitude": 20.467193,
      "latitude": 44.809968
    },
    {
      "id": "_6",
      "label": "Главна пошта",
      "longitude": 20.468349,
      "latitude": 44.811278
    },
    {
      "id": "_7",
      "label": "Булевар Деспота Стефана",
      "longitude": 20.46942,
      "latitude": 44.816567
    },
    {
      "id": "_8",
      "label": "Пијаца Скадарлија",
      "longitude": 20.467069,
      "latitude": 44.818513
    },
    {
      "id": "_9",
      "label": "Дорћол /Кнегиње Љубице/",
      "longitude": 20.464324,
      "latitude": 44.821208
    },
    {
      "id": "_10",
      "label": "Краља Петра",
      "longitude": 20.460245,
      "latitude": 44.82341
    },
    {
      "id": "_11",
      "label": "Браће Барух",
      "longitude": 20.45714,
      "latitude": 44.825098
    },
    {
      "id": "_12",
      "label": "Солунска",
      "longitude": 20.456064,
      "latitude": 44.8269
    },
    {
      "id": "_13",
      "label": "Дорћол /СРЦ Милалн Мушкатировић/",
      "longitude": 20.455852,
      "latitude": 44.829556
    },
    {
      "id": "_14",
      "label": "Дорћол /СРЦ Милалн Мушкатировић/",
      "longitude": 20.456261,
      "latitude": 44.829766
    }
  ]
}