{
  "direction_a": [
    {
      "id": "_1",
      "label": "Дорћол /СРЦ Милалн Мушкатировић/",
      "longitude": 20.456261,
      "latitude": 44.829766
    },
    {
      "id": "_2",
      "label": "Браће Барух",
      "longitude": 20.456947,
      "latitude": 44.82494
    },
    {
      "id": "_3",
      "label": "Краља Петра",
      "longitude": 20.460279,
      "latitude": 44.823157
    },
    {
      "id": "_4",
      "label": "Дорћол /Кнегиње Љубице/",
      "longitude": 20.463047,
      "latitude": 44.821661
    },
    {
      "id": "_5",
      "label": "Душанова",
      "longitude": 20.465345,
      "latitude": 44.819495
    },
    {
      "id": "_6",
      "label": "Пионирски Парк",
      "longitude": 20.465054,
      "latitude": 44.810986
    },
    {
      "id": "_7",
      "label": "Ресавска",
      "longitude": 20.467976,
      "latitude": 44.809155
    },
    {
      "id": "_8",
      "label": "Правни факултет",
      "longitude": 20.472006,
      "latitude": 44.806772
    },
    {
      "id": "_9",
      "label": "Вуков Споменик",
      "longitude": 20.478154,
      "latitude": 44.805407
    },
    {
      "id": "_10",
      "label": "Вуков Споменик",
      "longitude": 20.47948,
      "latitude": 44.804889
    }
  ],
  "direction_b": [
    {
      "id": "_1",
      "label": "Вуков Споменик",
      "longitude": 20.47948,
      "latitude": 44.804889
    },
    {
      "id": "_2",
      "label": "Технички Факултет",
      "longitude": 20.476439,
      "latitude": 44.805195
    },
    {
      "id": "_3",
      "label": "Правни факултет",
      "longitude": 20.472328,
      "latitude": 44.806937
    },
    {
      "id": "_4",
      "label": "Ташмајдан /Парк/",
      "longitude": 20.468969,
      "latitude": 44.808882
    },
    {
      "id": "_5",
      "label": "Главна пошта",
      "longitude": 20.467193,
      "latitude": 44.809968
    },
    {
      "id": "_6",
      "label": "Теразије",
      "longitude": 20.461159,
      "latitude": 44.813172
    },
    {
      "id": "_7",
      "label": "Републике трг",
      "longitude": 20.46066,
      "latitude": 44.815468
    },
    {
      "id": "_8",
      "label": "Душанова",
      "longitude": 20.46469,
      "latitude": 44.818927
    },
    {
      "id": "_9",
      "label": "Дорћол /Кнегиње Љубице/",
      "longitude": 20.464324,
      "latitude": 44.821208
    },
    {
      "id": "_10",
      "label": "Краља Петра",
      "longitude": 20.460245,
      "latitude": 44.82341
    },
    {
      "id": "_11",
      "label": "Браће Барух",
      "longitude": 20.45714,
      "latitude": 44.825098
    },
    {
      "id": "_12",
      "label": "Солунска",
      "longitude": 20.456064,
      "latitude": 44.8269
    },
    {
      "id": "_13",
      "label": "Дорћол /СРЦ Милалн Мушкатировић/",
      "longitude": 20.455852,
      "latitude": 44.829556
    },
    {
      "id": "_14",
      "label": "Дорћол /СРЦ Милалн Мушкатировић/",
      "longitude": 20.456261,
      "latitude": 44.829766
    }
  ]
}