{
  "direction_a": [
    {
      "id": "_1",
      "label": "Дорћол /СРЦ Милалн Мушкатировић/",
      "longitude": 20.456261,
      "latitude": 44.829766
    },
    {
      "id": "_2",
      "label": "Браће Барух",
      "longitude": 20.456947,
      "latitude": 44.82494
    },
    {
      "id": "_3",
      "label": "Дунавска",
      "longitude": 20.469082,
      "latitude": 44.821831
    },
    {
      "id": "_4",
      "label": "Гундулићев Венац",
      "longitude": 20.469886,
      "latitude": 44.819941
    },
    {
      "id": "_5",
      "label": "Војводе Добрњца",
      "longitude": 20.474116,
      "latitude": 44.819449
    },
    {
      "id": "_6",
      "label": "Цвијићева",
      "longitude": 20.475941,
      "latitude": 44.817221
    },
    {
      "id": "_7",
      "label": "Џорџа Вашингтона",
      "longitude": 20.469985,
      "latitude": 44.816963
    },
    {
      "id": "_8",
      "label": "Булевар Деспота Стефана",
      "longitude": 20.469302,
      "latitude": 44.816371
    },
    {
      "id": "_9",
      "label": "Таковска",
      "longitude": 20.47179,
      "latitude": 44.813666
    },
    {
      "id": "_10",
      "label": "Палилулска Пијаца",
      "longitude": 20.474163,
      "latitude": 44.810844
    },
    {
      "id": "_11",
      "label": "Машински Факултет",
      "longitude": 20.477037,
      "latitude": 44.807615
    },
    {
      "id": "_12",
      "label": "Вуков Споменик",
      "longitude": 20.47948,
      "latitude": 44.804889
    }
  ],
  "direction_b": [
    {
      "id": "_1",
      "label": "Вуков Споменик",
      "longitude": 20.47948,
      "latitude": 44.804889
    },
    {
      "id": "_2",
      "label": "Вуков Споменик",
      "longitude": 20.478154,
      "latitude": 44.805407
    },
    {
      "id": "_3",
      "label": "Машински Факултет",
      "longitude": 20.477381,
      "latitude": 44.807561
    },
    {
      "id": "_4",
      "label": "Палилулска Пијаца",
      "longitude": 20.474696,
      "latitude": 44.810584
    },
    {
      "id": "_5",
      "label": "Таковска",
      "longitude": 20.472556,
      "latitude": 44.813108
    },
    {
      "id": "_6",
      "label": "Булевар Деспота Стефана",
      "longitude": 20.46942,
      "latitude": 44.816567
    },
    {
      "id": "_7",
      "label": "Џорџа Вашингтона",
      "longitude": 20.469867,
      "latitude": 44.816793
    },
    {
      "id": "_8",
      "label": "Војводе Добрњца",
      "longitude": 20.472779,
      "latitude": 44.819744
    },
    {
      "id": "_9",
      "label": "Гундулићев Венац",
      "longitude": 20.470495,
      "latitude": 44.820007
    },
    {
      "id": "_10",
      "label": "Дунавска",
      "longitude": 20.468373,
      "latitude": 44.821221
    },
    {
      "id": "_11",
      "label": "Деспота Ђурђа",
      "longitude": 20.461693,
      "latitude": 44.826066
    },
    {
      "id": "_12",
      "label": "Браће Барух",
      "longitude": 20.45714,
      "latitude": 44.825098
    },
    {
      "id": "_13",
      "label": "Солунска",
      "longitude": 20.456064,
      "latitude": 44.8269
    },
    {
      "id": "_14",
      "label": "Дорћол /СРЦ Милалн Мушкатировић/",
      "longitude": 20.455852,
      "latitude": 44.829556
    },
    {
      "id": "_15",
      "label": "Дорћол /СРЦ Милалн Мушкатировић/",
      "longitude": 20.456261,
      "latitude": 44.829766
    }
  ]
}