{
  "direction_a": [
    {
      "id": "_1",
      "label": "Зелени венац",
      "longitude": 20.456957,
      "latitude": 44.814023
    },
    {
      "id": "_2",
      "label": "Бранков мост",
      "longitude": 20.452213,
      "latitude": 44.815368
    },
    {
      "id": "_3",
      "label": "Ушће",
      "longitude": 20.440726,
      "latitude": 44.814819
    },
    {
      "id": "_4",
      "label": "Старо Сајмиште",
      "longitude": 20.441537,
      "latitude": 44.812212
    },
    {
      "id": "_5",
      "label": "Старо Сајмиште",
      "longitude": 20.441054,
      "latitude": 44.811655
    },
    {
      "id": "_6",
      "label": "Милутина Миланковића",
      "longitude": 20.422388,
      "latitude": 44.807162
    },
    {
      "id": "_7",
      "label": "Железничка станица Нови Београд",
      "longitude": 20.418539,
      "latitude": 44.807235
    },
    {
      "id": "_8",
      "label": "ГП РАД",
      "longitude": 20.415913,
      "latitude": 44.801079
    },
    {
      "id": "_9",
      "label": "Нови Београд /Топлана/",
      "longitude": 20.412814,
      "latitude": 44.801809
    }
  ],
  "direction_b": [
    {
      "id": "_1",
      "label": "Нови Београд /Топлана/",
      "longitude": 20.412814,
      "latitude": 44.801809
    },
    {
      "id": "_2",
      "label": "ГП РАД",
      "longitude": 20.415486,
      "latitude": 44.801098
    },
    {
      "id": "_3",
      "label": "Блок 42",
      "longitude": 20.418545,
      "latitude": 44.803626
    },
    {
      "id": "_4",
      "label": "Блок 21",
      "longitude": 20.433838,
      "latitude": 44.813579
    },
    {
      "id": "_5",
      "label": "Бранков мост",
      "longitude": 20.452631,
      "latitude": 44.814962
    },
    {
      "id": "_6",
      "label": "Зелени венац",
      "longitude": 20.456957,
      "latitude": 44.814023
    }
  ]
}