{
  "direction_a": [
    {
      "id": "_1",
      "label": "Зелени венац",
      "longitude": 20.456704,
      "latitude": 44.814052
    },
    {
      "id": "_2",
      "label": "Бранков мост",
      "longitude": 20.452286,
      "latitude": 44.815386
    },
    {
      "id": "_3",
      "label": "Ушће",
      "longitude": 20.440023,
      "latitude": 44.814777
    },
    {
      "id": "_4",
      "label": "Старо Сајмиште",
      "longitude": 20.441493,
      "latitude": 44.812172
    },
    {
      "id": "_5",
      "label": "Славка Шландера",
      "longitude": 20.443392,
      "latitude": 44.809389
    },
    {
      "id": "_6",
      "label": "Мост Газела",
      "longitude": 20.439535,
      "latitude": 44.805388
    },
    {
      "id": "_7",
      "label": "Железнички мост Сава",
      "longitude": 20.436401,
      "latitude": 44.803372
    },
    {
      "id": "_8",
      "label": "Нови Железнички мост",
      "longitude": 20.430654,
      "latitude": 44.803691
    },
    {
      "id": "_9",
      "label": "ЈРБ",
      "longitude": 20.424735,
      "latitude": 44.803026
    },
    {
      "id": "_10",
      "label": "Милутина Миланковића",
      "longitude": 20.422358,
      "latitude": 44.807146
    },
    {
      "id": "_11",
      "label": "Железничка станица Нови Београд",
      "longitude": 20.418458,
      "latitude": 44.807189
    },
    {
      "id": "_12",
      "label": "ГП РАД",
      "longitude": 20.415924,
      "latitude": 44.801088
    },
    {
      "id": "_13",
      "label": "Нови Београд /Топлана/",
      "longitude": 20.412799,
      "latitude": 44.801809
    }
  ],
  "direction_b": [
    {
      "id": "_1",
      "label": "Нови Београд /Топлана/",
      "longitude": 20.412799,
      "latitude": 44.801809
    },
    {
      "id": "_2",
      "label": "ГП РАД",
      "longitude": 20.415473,
      "latitude": 44.80108
    },
    {
      "id": "_3",
      "label": "Блок 42",
      "longitude": 20.418512,
      "latitude": 44.803634
    },
    {
      "id": "_4",
      "label": "ЈРБ",
      "longitude": 20.424958,
      "latitude": 44.802499
    },
    {
      "id": "_5",
      "label": "Нови Железнички мост",
      "longitude": 20.431161,
      "latitude": 44.803706
    },
    {
      "id": "_6",
      "label": "Железнички мост Сава",
      "longitude": 20.436593,
      "latitude": 44.803046
    },
    {
      "id": "_7",
      "label": "Мост Газела",
      "longitude": 20.439762,
      "latitude": 44.805402
    },
    {
      "id": "_8",
      "label": "Славка Шландера",
      "longitude": 20.443599,
      "latitude": 44.809415
    },
    {
      "id": "_9",
      "label": "Старо Сајмиште",
      "longitude": 20.441709,
      "latitude": 44.812029
    },
    {
      "id": "_10",
      "label": "Бранков мост",
      "longitude": 20.452112,
      "latitude": 44.81492
    },
    {
      "id": "_11",
      "label": "Зелени венац",
      "longitude": 20.456704,
      "latitude": 44.814052
    }
  ]
}