{
  "direction_a": [
    {
      "id": "_1",
      "label": "Зелени венац",
      "longitude": 20.456957,
      "latitude": 44.814023
    },
    {
      "id": "_2",
      "label": "Бранков мост",
      "longitude": 20.452213,
      "latitude": 44.815368
    },
    {
      "id": "_3",
      "label": "Ушће",
      "longitude": 20.440726,
      "latitude": 44.814819
    },
    {
      "id": "_4",
      "label": "Старо Сајмиште",
      "longitude": 20.441537,
      "latitude": 44.812212
    },
    {
      "id": "_5",
      "label": "Славка Шландера",
      "longitude": 20.443433,
      "latitude": 44.809401
    },
    {
      "id": "_6",
      "label": "Мост Газела",
      "longitude": 20.439643,
      "latitude": 44.805416
    },
    {
      "id": "_7",
      "label": "Железнички мост Сава",
      "longitude": 20.43636,
      "latitude": 44.803373
    },
    {
      "id": "_8",
      "label": "Нови Железнички мост",
      "longitude": 20.430841,
      "latitude": 44.803744
    },
    {
      "id": "_9",
      "label": "ЈРБ",
      "longitude": 20.424735,
      "latitude": 44.803026
    },
    {
      "id": "_10",
      "label": "Милутина Миланковића",
      "longitude": 20.422388,
      "latitude": 44.807162
    },
    {
      "id": "_11",
      "label": "Железничка станица Нови Београд",
      "longitude": 20.418539,
      "latitude": 44.807235
    },
    {
      "id": "_12",
      "label": "Блок 42",
      "longitude": 20.416233,
      "latitude": 44.804082
    },
    {
      "id": "_13",
      "label": "Насеље Белвил",
      "longitude": 20.408959,
      "latitude": 44.804434
    },
    {
      "id": "_14",
      "label": "Агостина Нета",
      "longitude": 20.402702,
      "latitude": 44.804678
    },
    {
      "id": "_15",
      "label": "Јурија Гагарина",
      "longitude": 20.399686,
      "latitude": 44.801089
    },
    {
      "id": "_16",
      "label": "Блок 70А",
      "longitude": 20.400289,
      "latitude": 44.798191
    }
  ],
  "direction_b": [
    {
      "id": "_1",
      "label": "Блок 70А",
      "longitude": 20.400289,
      "latitude": 44.798191
    },
    {
      "id": "_2",
      "label": "Јурија Гагарина",
      "longitude": 20.399837,
      "latitude": 44.80173
    },
    {
      "id": "_3",
      "label": "Агостина Нета",
      "longitude": 20.405077,
      "latitude": 44.80423
    },
    {
      "id": "_4",
      "label": "Насеље Белвил",
      "longitude": 20.40932,
      "latitude": 44.804042
    },
    {
      "id": "_5",
      "label": "Блок 42",
      "longitude": 20.418545,
      "latitude": 44.803626
    },
    {
      "id": "_6",
      "label": "ЈРБ",
      "longitude": 20.424932,
      "latitude": 44.802596
    },
    {
      "id": "_7",
      "label": "Нови Железнички мост",
      "longitude": 20.431136,
      "latitude": 44.803718
    },
    {
      "id": "_8",
      "label": "Железнички мост Сава",
      "longitude": 20.436633,
      "latitude": 44.803081
    },
    {
      "id": "_9",
      "label": "Мост Газела",
      "longitude": 20.439776,
      "latitude": 44.805404
    },
    {
      "id": "_10",
      "label": "Славка Шландера",
      "longitude": 20.443599,
      "latitude": 44.809415
    },
    {
      "id": "_11",
      "label": "Старо Сајмиште",
      "longitude": 20.441698,
      "latitude": 44.812037
    },
    {
      "id": "_12",
      "label": "Бранков мост",
      "longitude": 20.452631,
      "latitude": 44.814962
    },
    {
      "id": "_13",
      "label": "Зелени венац",
      "longitude": 20.456957,
      "latitude": 44.814023
    }
  ]
}