{
  "direction_a": [
    {
      "id": "_1",
      "label": "Савски трг",
      "longitude": 20.455596,
      "latitude": 44.807795
    },
    {
      "id": "_2",
      "label": "Палата Правде",
      "longitude": 20.452917,
      "latitude": 44.804446
    },
    {
      "id": "_3",
      "label": "Сава центар",
      "longitude": 20.431328,
      "latitude": 44.807647
    },
    {
      "id": "_4",
      "label": "Београдска Арена (Антифашистичке Борбе)",
      "longitude": 20.422554,
      "latitude": 44.811679
    },
    {
      "id": "_5",
      "label": "Београдска Арена (Шпанских Бораца)",
      "longitude": 20.4183,
      "latitude": 44.813603
    },
    {
      "id": "_6",
      "label": "Омладинских Бригада",
      "longitude": 20.410162,
      "latitude": 44.817346
    },
    {
      "id": "_7",
      "label": "Тошин Бунар",
      "longitude": 20.400007,
      "latitude": 44.821993
    },
    {
      "id": "_8",
      "label": "СЦ Визура",
      "longitude": 20.396027,
      "latitude": 44.821002
    },
    {
      "id": "_9",
      "label": "Железничка Станица Тошин Бунар",
      "longitude": 20.395053,
      "latitude": 44.817222
    },
    {
      "id": "_10",
      "label": "Стари Аеродром",
      "longitude": 20.392808,
      "latitude": 44.814103
    },
    {
      "id": "_11",
      "label": "ИМТ",
      "longitude": 20.389638,
      "latitude": 44.812513
    },
    {
      "id": "_12",
      "label": "Гандијева 1",
      "longitude": 20.381948,
      "latitude": 44.810315
    },
    {
      "id": "_13",
      "label": "Бежанија Пијаца",
      "longitude": 20.37774,
      "latitude": 44.808581
    },
    {
      "id": "_14",
      "label": "Црква Св.Георгија",
      "longitude": 20.374628,
      "latitude": 44.807325
    },
    {
      "id": "_15",
      "label": "Душана Вукасовића",
      "longitude": 20.370581,
      "latitude": 44.805672
    },
    {
      "id": "_16",
      "label": "Сурчинска",
      "longitude": 20.36689,
      "latitude": 44.804157
    },
    {
      "id": "_17",
      "label": "Недељка Гвозденовића",
      "longitude": 20.359747,
      "latitude": 44.807719
    },
    {
      "id": "_18",
      "label": "Биодекор",
      "longitude": 20.352385,
      "latitude": 44.806458
    },
    {
      "id": "_19",
      "label": "Ледине",
      "longitude": 20.34849,
      "latitude": 44.805257
    },
    {
      "id": "_20",
      "label": "СЦ Младост",
      "longitude": 20.340452,
      "latitude": 44.802818
    },
    {
      "id": "_21",
      "label": "Вила Мара",
      "longitude": 20.335436,
      "latitude": 44.801282
    },
    {
      "id": "_22",
      "label": "Ново Насеље",
      "longitude": 20.329709,
      "latitude": 44.800002
    },
    {
      "id": "_23",
      "label": "Викенд Насеље",
      "longitude": 20.324747,
      "latitude": 44.799291
    },
    {
      "id": "_24",
      "label": "Малињак",
      "longitude": 20.319034,
      "latitude": 44.798482
    },
    {
      "id": "_25",
      "label": "Галовица",
      "longitude": 20.311854,
      "latitude": 44.797433
    },
    {
      "id": "_26",
      "label": "Орешац",
      "longitude": 20.305277,
      "latitude": 44.796487
    },
    {
      "id": "_27",
      "label": "Сурчин /Улаз/",
      "longitude": 20.297673,
      "latitude": 44.795377
    },
    {
      "id": "_28",
      "label": "Сурчин /Црква/",
      "longitude": 20.290563,
      "latitude": 44.794408
    },
    {
      "id": "_29",
      "label": "Сурчин /Марка Рaba/",
      "longitude": 20.284769,
      "latitude": 44.79355
    },
    {
      "id": "_30",
      "label": "Сурчин /Скопљанска/",
      "longitude": 20.278388,
      "latitude": 44.792594
    },
    {
      "id": "_31",
      "label": "Сурчин /Центар/",
      "longitude": 20.26962,
      "latitude": 44.790965
    },
    {
      "id": "_32",
      "label": "Сурчин /Партизанска/",
      "longitude": 20.261833,
      "latitude": 44.789473
    },
    {
      "id": "_33",
      "label": "Сурчин /Млин/",
      "longitude": 20.256056,
      "latitude": 44.78719
    },
    {
      "id": "_34",
      "label": "Сурчин /Браће Николић/",
      "longitude": 20.253907,
      "latitude": 44.783457
    },
    {
      "id": "_35",
      "label": "Сурчин",
      "longitude": 20.249981,
      "latitude": 44.781001
    }
  ],
  "direction_b": [
    {
      "id": "_1",
      "label": "Сурчин",
      "longitude": 20.250198,
      "latitude": 44.780651
    },
    {
      "id": "_2",
      "label": "Сурчин /Браће Николић/",
      "longitude": 20.254237,
      "latitude": 44.783786
    },
    {
      "id": "_3",
      "label": "Сурчин /Млин/",
      "longitude": 20.256281,
      "latitude": 44.787284
    },
    {
      "id": "_4",
      "label": "Сурчин /Партизанска/",
      "longitude": 20.262136,
      "latitude": 44.789416
    },
    {
      "id": "_5",
      "label": "Сурчин /Центар/",
      "longitude": 20.271047,
      "latitude": 44.791089
    },
    {
      "id": "_6",
      "label": "Сурчин /Скопљанска/",
      "longitude": 20.27996,
      "latitude": 44.792695
    },
    {
      "id": "_7",
      "label": "Сурчин /Марка Рaba/",
      "longitude": 20.28637,
      "latitude": 44.793634
    },
    {
      "id": "_8",
      "label": "Сурчин /Црква/",
      "longitude": 20.290753,
      "latitude": 44.794247
    },
    {
      "id": "_9",
      "label": "Сурчин /Улаз/",
      "longitude": 20.29763,
      "latitude": 44.795229
    },
    {
      "id": "_10",
      "label": "Орешац",
      "longitude": 20.305575,
      "latitude": 44.796369
    },
    {
      "id": "_11",
      "label": "Галовица",
      "longitude": 20.312433,
      "latitude": 44.797347
    },
    {
      "id": "_12",
      "label": "Малињак",
      "longitude": 20.319391,
      "latitude": 44.798375
    },
    {
      "id": "_13",
      "label": "Викенд Насеље",
      "longitude": 20.325225,
      "latitude": 44.79924
    },
    {
      "id": "_14",
      "label": "Ново Насеље",
      "longitude": 20.33045,
      "latitude": 44.799986
    },
    {
      "id": "_15",
      "label": "Вила Мара",
      "longitude": 20.334071,
      "latitude": 44.800688
    },
    {
      "id": "_16",
      "label": "СЦ Младост",
      "longitude": 20.341811,
      "latitude": 44.803074
    },
    {
      "id": "_17",
      "label": "Ледине",
      "longitude": 20.348614,
      "latitude": 44.80513
    },
    {
      "id": "_18",
      "label": "Биодекор",
      "longitude": 20.35338,
      "latitude": 44.806629
    },
    {
      "id": "_19",
      "label": "Недељка Гвозденовића",
      "longitude": 20.360225,
      "latitude": 44.807542
    },
    {
      "id": "_20",
      "label": "Сурчинска",
      "longitude": 20.367064,
      "latitude": 44.80393
    },
    {
      "id": "_21",
      "label": "Душана Вукасовића",
      "longitude": 20.372252,
      "latitude": 44.806031
    },
    {
      "id": "_22",
      "label": "Црква Св.Георгија",
      "longitude": 20.375897,
      "latitude": 44.807489
    },
    {
      "id": "_23",
      "label": "Бежанија Пијаца",
      "longitude": 20.378641,
      "latitude": 44.808604
    },
    {
      "id": "_24",
      "label": "Гандијева",
      "longitude": 20.383477,
      "latitude": 44.81069
    },
    {
      "id": "_25",
      "label": "ИМТ",
      "longitude": 20.391258,
      "latitude": 44.812825
    },
    {
      "id": "_26",
      "label": "Железничка Станица Тошин Бунар",
      "longitude": 20.395281,
      "latitude": 44.816813
    },
    {
      "id": "_27",
      "label": "Милутина Миланковића",
      "longitude": 20.396156,
      "latitude": 44.820203
    },
    {
      "id": "_28",
      "label": "Тошин Бунар",
      "longitude": 20.399637,
      "latitude": 44.821543
    },
    {
      "id": "_29",
      "label": "Омладинских Бригада",
      "longitude": 20.409854,
      "latitude": 44.816862
    },
    {
      "id": "_30",
      "label": "Београдска Арена (Шпанских Бораца)",
      "longitude": 20.418279,
      "latitude": 44.813004
    },
    {
      "id": "_31",
      "label": "Београдска Арена (Антифашистичке Борбе)",
      "longitude": 20.422406,
      "latitude": 44.811103
    },
    {
      "id": "_32",
      "label": "Сава центар",
      "longitude": 20.430957,
      "latitude": 44.80719
    },
    {
      "id": "_33",
      "label": "Дурмиторска",
      "longitude": 20.451415,
      "latitude": 44.802039
    },
    {
      "id": "_34",
      "label": "Палата Правде",
      "longitude": 20.453787,
      "latitude": 44.804951
    },
    {
      "id": "_35",
      "label": "Савски трг",
      "longitude": 20.456752,
      "latitude": 44.808511
    },
    {
      "id": "_36",
      "label": "Савски трг",
      "longitude": 20.455596,
      "latitude": 44.807795
    }
  ]
}