{
  "direction_a": [
    {
      "id": "_1",
      "label": "Немањина",
      "longitude": 20.458357,
      "latitude": 44.807879
    },
    {
      "id": "_2",
      "label": "БАС",
      "longitude": 20.452635,
      "latitude": 44.81034
    },
    {
      "id": "_3",
      "label": "Палата Правде",
      "longitude": 20.451419,
      "latitude": 44.80302
    },
    {
      "id": "_4",
      "label": "Сава центар",
      "longitude": 20.431435,
      "latitude": 44.807619
    },
    {
      "id": "_5",
      "label": "Београдска Арена (Антифашистичке Борбе)",
      "longitude": 20.42257,
      "latitude": 44.811682
    },
    {
      "id": "_6",
      "label": "Београдска Арена (Шпанских Бораца)",
      "longitude": 20.418413,
      "latitude": 44.81359
    },
    {
      "id": "_7",
      "label": "Омладинских Бригада",
      "longitude": 20.41018,
      "latitude": 44.817353
    },
    {
      "id": "_8",
      "label": "Тошин Бунар",
      "longitude": 20.400103,
      "latitude": 44.821976
    },
    {
      "id": "_9",
      "label": "СЦ Визура",
      "longitude": 20.39605,
      "latitude": 44.820912
    },
    {
      "id": "_10",
      "label": "Железничка Станица Тошин Бунар",
      "longitude": 20.395056,
      "latitude": 44.817184
    },
    {
      "id": "_11",
      "label": "Стари Аеродром",
      "longitude": 20.392807,
      "latitude": 44.814091
    },
    {
      "id": "_12",
      "label": "ИМТ",
      "longitude": 20.38967,
      "latitude": 44.812505
    },
    {
      "id": "_13",
      "label": "Гандијева 1",
      "longitude": 20.381421,
      "latitude": 44.810076
    },
    {
      "id": "_14",
      "label": "Бежанија Пијаца",
      "longitude": 20.37778,
      "latitude": 44.808579
    },
    {
      "id": "_15",
      "label": "Црква Св.Георгија",
      "longitude": 20.37552,
      "latitude": 44.807663
    },
    {
      "id": "_16",
      "label": "Душана Вукасовића",
      "longitude": 20.370577,
      "latitude": 44.805657
    },
    {
      "id": "_17",
      "label": "Сурчинска",
      "longitude": 20.36693,
      "latitude": 44.804164
    },
    {
      "id": "_18",
      "label": "Недељка Гвозденовића",
      "longitude": 20.359788,
      "latitude": 44.807719
    },
    {
      "id": "_19",
      "label": "Биодекор",
      "longitude": 20.35217,
      "latitude": 44.806391
    },
    {
      "id": "_20",
      "label": "Ледине",
      "longitude": 20.348501,
      "latitude": 44.805249
    },
    {
      "id": "_21",
      "label": "СЦ Младост",
      "longitude": 20.340393,
      "latitude": 44.802799
    },
    {
      "id": "_22",
      "label": "Вила Мара",
      "longitude": 20.335425,
      "latitude": 44.801285
    },
    {
      "id": "_23",
      "label": "Ново Насеље",
      "longitude": 20.329624,
      "latitude": 44.800009
    },
    {
      "id": "_24",
      "label": "Викенд Насеље",
      "longitude": 20.324796,
      "latitude": 44.799291
    },
    {
      "id": "_25",
      "label": "Малињак",
      "longitude": 20.319089,
      "latitude": 44.798475
    },
    {
      "id": "_26",
      "label": "Галовица",
      "longitude": 20.311908,
      "latitude": 44.797436
    },
    {
      "id": "_27",
      "label": "Орешац",
      "longitude": 20.305336,
      "latitude": 44.796485
    },
    {
      "id": "_28",
      "label": "Сурчин /Улаз/",
      "longitude": 20.297673,
      "latitude": 44.795377
    },
    {
      "id": "_29",
      "label": "Сурчин /Црква/",
      "longitude": 20.290595,
      "latitude": 44.794388
    },
    {
      "id": "_30",
      "label": "Сурчин /Марка Рaba/",
      "longitude": 20.284828,
      "latitude": 44.793543
    },
    {
      "id": "_31",
      "label": "Сурчин /Скопљанска/",
      "longitude": 20.278425,
      "latitude": 44.792613
    },
    {
      "id": "_32",
      "label": "Сурчин /Центар/",
      "longitude": 20.269677,
      "latitude": 44.790965
    },
    {
      "id": "_33",
      "label": "Сурчин /Партизанска/",
      "longitude": 20.261782,
      "latitude": 44.789434
    },
    {
      "id": "_34",
      "label": "Сурчин /Млин/",
      "longitude": 20.256119,
      "latitude": 44.787255
    },
    {
      "id": "_35",
      "label": "Сурчин /Браће Николић/",
      "longitude": 20.253929,
      "latitude": 44.783456
    },
    {
      "id": "_36",
      "label": "Сурчин",
      "longitude": 20.249843,
      "latitude": 44.780963
    }
  ],
  "direction_b": [
    {
      "id": "_1",
      "label": "Сурчин",
      "longitude": 20.250248,
      "latitude": 44.780656
    },
    {
      "id": "_2",
      "label": "Сурчин /Браће Николић/",
      "longitude": 20.254282,
      "latitude": 44.783804
    },
    {
      "id": "_3",
      "label": "Сурчин /Млин/",
      "longitude": 20.256218,
      "latitude": 44.787163
    },
    {
      "id": "_4",
      "label": "Сурчин /Партизанска/",
      "longitude": 20.262169,
      "latitude": 44.789417
    },
    {
      "id": "_5",
      "label": "Сурчин /Центар/",
      "longitude": 20.271055,
      "latitude": 44.791081
    },
    {
      "id": "_6",
      "label": "Сурчин /Скопљанска/",
      "longitude": 20.280024,
      "latitude": 44.792684
    },
    {
      "id": "_7",
      "label": "Сурчин /Марка Рaba/",
      "longitude": 20.286345,
      "latitude": 44.793611
    },
    {
      "id": "_8",
      "label": "Сурчин /Црква/",
      "longitude": 20.290656,
      "latitude": 44.794234
    },
    {
      "id": "_9",
      "label": "Сурчин /Улаз/",
      "longitude": 20.297581,
      "latitude": 44.795203
    },
    {
      "id": "_10",
      "label": "Орешац",
      "longitude": 20.305618,
      "latitude": 44.796375
    },
    {
      "id": "_11",
      "label": "Галовица",
      "longitude": 20.312473,
      "latitude": 44.797347
    },
    {
      "id": "_12",
      "label": "Малињак",
      "longitude": 20.319398,
      "latitude": 44.798368
    },
    {
      "id": "_13",
      "label": "Викенд Насеље",
      "longitude": 20.325288,
      "latitude": 44.799241
    },
    {
      "id": "_14",
      "label": "Ново Насеље",
      "longitude": 20.330517,
      "latitude": 44.799973
    },
    {
      "id": "_15",
      "label": "Вила Мара",
      "longitude": 20.334089,
      "latitude": 44.800675
    },
    {
      "id": "_16",
      "label": "СЦ Младост",
      "longitude": 20.341994,
      "latitude": 44.803095
    },
    {
      "id": "_17",
      "label": "Ледине",
      "longitude": 20.348707,
      "latitude": 44.805139
    },
    {
      "id": "_18",
      "label": "Биодекор",
      "longitude": 20.35338,
      "latitude": 44.806629
    },
    {
      "id": "_19",
      "label": "Недељка Гвозденовића",
      "longitude": 20.36023,
      "latitude": 44.807547
    },
    {
      "id": "_20",
      "label": "Сурчинска",
      "longitude": 20.367118,
      "latitude": 44.803938
    },
    {
      "id": "_21",
      "label": "Душана Вукасовића",
      "longitude": 20.372277,
      "latitude": 44.806038
    },
    {
      "id": "_22",
      "label": "Црква Св.Георгија",
      "longitude": 20.375876,
      "latitude": 44.807516
    },
    {
      "id": "_23",
      "label": "Бежанија Пијаца",
      "longitude": 20.377138,
      "latitude": 44.808027
    },
    {
      "id": "_24",
      "label": "Гандијева",
      "longitude": 20.383529,
      "latitude": 44.810703
    },
    {
      "id": "_25",
      "label": "ИМТ",
      "longitude": 20.391274,
      "latitude": 44.812825
    },
    {
      "id": "_26",
      "label": "Железничка Станица Тошин Бунар",
      "longitude": 20.395311,
      "latitude": 44.816818
    },
    {
      "id": "_27",
      "label": "Милутина Миланковића",
      "longitude": 20.396229,
      "latitude": 44.820269
    },
    {
      "id": "_28",
      "label": "Тошин Бунар",
      "longitude": 20.399688,
      "latitude": 44.821541
    },
    {
      "id": "_29",
      "label": "Омладинских Бригада",
      "longitude": 20.409906,
      "latitude": 44.816867
    },
    {
      "id": "_30",
      "label": "Београдска Арена (Шпанских Бораца)",
      "longitude": 20.418309,
      "latitude": 44.813017
    },
    {
      "id": "_31",
      "label": "Београдска Арена (Антифашистичке Борбе)",
      "longitude": 20.422468,
      "latitude": 44.811108
    },
    {
      "id": "_32",
      "label": "Сава центар",
      "longitude": 20.431066,
      "latitude": 44.807169
    },
    {
      "id": "_33",
      "label": "Дринска",
      "longitude": 20.451825,
      "latitude": 44.800848
    },
    {
      "id": "_34",
      "label": "Милоша Поцерца",
      "longitude": 20.454948,
      "latitude": 44.803463
    },
    {
      "id": "_35",
      "label": "Немањина",
      "longitude": 20.458357,
      "latitude": 44.807879
    }
  ]
}