{
  "direction_a": [
    {
      "id": "_1",
      "label": "Блок 44",
      "longitude": 20.383978,
      "latitude": 44.797018
    },
    {
      "id": "_2",
      "label": "Дом здравља",
      "longitude": 20.38267,
      "latitude": 44.799142
    },
    {
      "id": "_3",
      "label": "Црква Св.Георгија",
      "longitude": 20.374628,
      "latitude": 44.807325
    },
    {
      "id": "_4",
      "label": "Душана Вукасовића",
      "longitude": 20.370581,
      "latitude": 44.805672
    },
    {
      "id": "_5",
      "label": "Сурчинска",
      "longitude": 20.36689,
      "latitude": 44.804157
    },
    {
      "id": "_6",
      "label": "Виноградска /Улаз/",
      "longitude": 20.357954,
      "latitude": 44.800701
    },
    {
      "id": "_7",
      "label": "МЗ Ледине",
      "longitude": 20.350341,
      "latitude": 44.798144
    },
    {
      "id": "_8",
      "label": "Воденичарска",
      "longitude": 20.339913,
      "latitude": 44.796187
    },
    {
      "id": "_9",
      "label": "Сурчин /Улаз/",
      "longitude": 20.331176,
      "latitude": 44.794924
    },
    {
      "id": "_10",
      "label": "МЗ Нови Сурчин",
      "longitude": 20.32413,
      "latitude": 44.794594
    },
    {
      "id": "_11",
      "label": "Сурчин /Канал Галовица/",
      "longitude": 20.316278,
      "latitude": 44.794664
    },
    {
      "id": "_12",
      "label": "Сурчин /Силоси/",
      "longitude": 20.305773,
      "latitude": 44.793251
    },
    {
      "id": "_13",
      "label": "Сурчин Насеље /Виноградска/",
      "longitude": 20.299048,
      "latitude": 44.792809
    },
    {
      "id": "_14",
      "label": "Сурчин Насеље /Улаз/",
      "longitude": 20.29377,
      "latitude": 44.791426
    },
    {
      "id": "_15",
      "label": "Сурчин /Ритска/",
      "longitude": 20.286673,
      "latitude": 44.789682
    },
    {
      "id": "_16",
      "label": "Сурчин /Драгомира Момчиловића/",
      "longitude": 20.279925,
      "latitude": 44.789343
    },
    {
      "id": "_17",
      "label": "Сурчин /Центар/",
      "longitude": 20.26962,
      "latitude": 44.790965
    },
    {
      "id": "_18",
      "label": "Сурчин /Партизанска/",
      "longitude": 20.261833,
      "latitude": 44.789473
    },
    {
      "id": "_19",
      "label": "Сурчин /Млин/",
      "longitude": 20.256056,
      "latitude": 44.78719
    },
    {
      "id": "_20",
      "label": "Сурчин /Браће Николић/",
      "longitude": 20.253907,
      "latitude": 44.783457
    },
    {
      "id": "_21",
      "label": "Сурчин /Римски Канал/",
      "longitude": 20.250407,
      "latitude": 44.781256
    },
    {
      "id": "_22",
      "label": "СРЦ Сурчин /УЛАЗ/",
      "longitude": 20.236143,
      "latitude": 44.787912
    },
    {
      "id": "_23",
      "label": "СРЦ Сурчин",
      "longitude": 20.231581,
      "latitude": 44.788034
    }
  ],
  "direction_b": [
    {
      "id": "_1",
      "label": "СРЦ Сурчин",
      "longitude": 20.231581,
      "latitude": 44.788034
    },
    {
      "id": "_2",
      "label": "СРЦ Сурчин /УЛАЗ/",
      "longitude": 20.2368,
      "latitude": 44.787785
    },
    {
      "id": "_3",
      "label": "Пут за СРЦ Сурчин",
      "longitude": 20.249286,
      "latitude": 44.78131
    },
    {
      "id": "_4",
      "label": "Сурчин /Браће Николић/",
      "longitude": 20.254237,
      "latitude": 44.783786
    },
    {
      "id": "_5",
      "label": "Сурчин /Млин/",
      "longitude": 20.256281,
      "latitude": 44.787284
    },
    {
      "id": "_6",
      "label": "Сурчин /Партизанска/",
      "longitude": 20.262136,
      "latitude": 44.789416
    },
    {
      "id": "_7",
      "label": "Сурчин /Центар/",
      "longitude": 20.270172,
      "latitude": 44.790685
    },
    {
      "id": "_8",
      "label": "Сурчин /Драгомира Момчиловића/",
      "longitude": 20.279655,
      "latitude": 44.789186
    },
    {
      "id": "_9",
      "label": "Сурчин /Ритска/",
      "longitude": 20.287473,
      "latitude": 44.789598
    },
    {
      "id": "_10",
      "label": "Сурчин Насеље /Улаз/",
      "longitude": 20.294344,
      "latitude": 44.791466
    },
    {
      "id": "_11",
      "label": "Сурчин Насеље /Виноградска/",
      "longitude": 20.299057,
      "latitude": 44.792724
    },
    {
      "id": "_12",
      "label": "Сурчин /Силоси/",
      "longitude": 20.305358,
      "latitude": 44.793051
    },
    {
      "id": "_13",
      "label": "Сурчин /Канал Галовица/",
      "longitude": 20.316519,
      "latitude": 44.794598
    },
    {
      "id": "_14",
      "label": "МЗ Нови Сурчин",
      "longitude": 20.323299,
      "latitude": 44.794529
    },
    {
      "id": "_15",
      "label": "Сурчин /Улаз/",
      "longitude": 20.330384,
      "latitude": 44.794791
    },
    {
      "id": "_16",
      "label": "Воденичарска",
      "longitude": 20.339274,
      "latitude": 44.79602
    },
    {
      "id": "_17",
      "label": "МЗ Ледине",
      "longitude": 20.350561,
      "latitude": 44.798112
    },
    {
      "id": "_18",
      "label": "Виноградска /Улаз/",
      "longitude": 20.357884,
      "latitude": 44.800588
    },
    {
      "id": "_19",
      "label": "Сурчинска",
      "longitude": 20.367064,
      "latitude": 44.80393
    },
    {
      "id": "_20",
      "label": "Душана Вукасовића",
      "longitude": 20.372252,
      "latitude": 44.806031
    },
    {
      "id": "_21",
      "label": "ОШ Јован Стерија Поповић",
      "longitude": 20.376825,
      "latitude": 44.807103
    },
    {
      "id": "_22",
      "label": "Дом здравља",
      "longitude": 20.382608,
      "latitude": 44.798875
    },
    {
      "id": "_23",
      "label": "Блок 44",
      "longitude": 20.384088,
      "latitude": 44.796443
    },
    {
      "id": "_24",
      "label": "Блок 44",
      "longitude": 20.383978,
      "latitude": 44.797018
    }
  ]
}