{
  "direction_a": [
    {
      "id": "_1",
      "label": "Нови Београд /Павильони/",
      "longitude": 20.404275,
      "latitude": 44.830043
    },
    {
      "id": "_2",
      "label": "Маршала Толбухина булевар",
      "longitude": 20.411053,
      "latitude": 44.829753
    },
    {
      "id": "_3",
      "label": "Архив",
      "longitude": 20.411997,
      "latitude": 44.827033
    },
    {
      "id": "_4",
      "label": "ГО Нови Београд",
      "longitude": 20.411814,
      "latitude": 44.823004
    },
    {
      "id": "_5",
      "label": "Зорана Ђинђића булевар",
      "longitude": 20.409422,
      "latitude": 44.820266
    },
    {
      "id": "_6",
      "label": "Тошин Бунар",
      "longitude": 20.400007,
      "latitude": 44.821993
    },
    {
      "id": "_7",
      "label": "Бежанијска Коса",
      "longitude": 20.388887,
      "latitude": 44.827004
    },
    {
      "id": "_8",
      "label": "Змај",
      "longitude": 20.371554,
      "latitude": 44.831237
    },
    {
      "id": "_9",
      "label": "Грмеч",
      "longitude": 20.359192,
      "latitude": 44.832753
    },
    {
      "id": "_10",
      "label": "Икарбус",
      "longitude": 20.347315,
      "latitude": 44.833877
    },
    {
      "id": "_11",
      "label": "Насеље Радиофар",
      "longitude": 20.309933,
      "latitude": 44.834482
    },
    {
      "id": "_12",
      "label": "Пут за Соко Салаш",
      "longitude": 20.286705,
      "latitude": 44.833687
    },
    {
      "id": "_13",
      "label": "Аеродром Никола Тесла",
      "longitude": 20.2909,
      "latitude": 44.819241
    },
    {
      "id": "_14",
      "label": "Робни Терминал",
      "longitude": 20.288495,
      "latitude": 44.81739
    },
    {
      "id": "_15",
      "label": "JAT Tehnika",
      "longitude": 20.29336,
      "latitude": 44.812028
    },
    {
      "id": "_16",
      "label": "Малињак",
      "longitude": 20.319034,
      "latitude": 44.798482
    },
    {
      "id": "_17",
      "label": "Галовица",
      "longitude": 20.311854,
      "latitude": 44.797433
    },
    {
      "id": "_18",
      "label": "Орешац",
      "longitude": 20.305277,
      "latitude": 44.796487
    },
    {
      "id": "_19",
      "label": "Сурчин /Улаз/",
      "longitude": 20.297673,
      "latitude": 44.795377
    },
    {
      "id": "_20",
      "label": "Сурчин /Црква/",
      "longitude": 20.290563,
      "latitude": 44.794408
    },
    {
      "id": "_21",
      "label": "Сурчин /Марка Рaba/",
      "longitude": 20.284769,
      "latitude": 44.79355
    },
    {
      "id": "_22",
      "label": "Сурчин /Скопљанска/",
      "longitude": 20.278388,
      "latitude": 44.792594
    },
    {
      "id": "_23",
      "label": "Сурчин /Центар/",
      "longitude": 20.26962,
      "latitude": 44.790965
    },
    {
      "id": "_24",
      "label": "Сурчин /Партизанска/",
      "longitude": 20.261833,
      "latitude": 44.789473
    },
    {
      "id": "_25",
      "label": "Сурчин /Млин/",
      "longitude": 20.256056,
      "latitude": 44.78719
    },
    {
      "id": "_26",
      "label": "Сурчин /Браће Николић/",
      "longitude": 20.253907,
      "latitude": 44.783457
    },
    {
      "id": "_27",
      "label": "Сурчин",
      "longitude": 20.249981,
      "latitude": 44.781001
    }
  ],
  "direction_b": [
    {
      "id": "_1",
      "label": "Сурчин",
      "longitude": 20.250198,
      "latitude": 44.780651
    },
    {
      "id": "_2",
      "label": "Пут за СРЦ",
      "longitude": 20.253202,
      "latitude": 44.781877
    },
    {
      "id": "_3",
      "label": "Сурчин /Браће Николић/",
      "longitude": 20.254237,
      "latitude": 44.783786
    },
    {
      "id": "_4",
      "label": "Сурчин /Млин/",
      "longitude": 20.256281,
      "latitude": 44.787284
    },
    {
      "id": "_5",
      "label": "Сурчин /Партизанска/",
      "longitude": 20.262136,
      "latitude": 44.789416
    },
    {
      "id": "_6",
      "label": "Сурчин /Центар/",
      "longitude": 20.271047,
      "latitude": 44.791089
    },
    {
      "id": "_7",
      "label": "Сурчин /Скопљанска/",
      "longitude": 20.27996,
      "latitude": 44.792695
    },
    {
      "id": "_8",
      "label": "Сурчин /Марка Рaba/",
      "longitude": 20.28637,
      "latitude": 44.793634
    },
    {
      "id": "_9",
      "label": "Сурчин /Црква/",
      "longitude": 20.290753,
      "latitude": 44.794247
    },
    {
      "id": "_10",
      "label": "Сурчин /Улаз/",
      "longitude": 20.29763,
      "latitude": 44.795229
    },
    {
      "id": "_11",
      "label": "Орешац",
      "longitude": 20.305575,
      "latitude": 44.796369
    },
    {
      "id": "_12",
      "label": "Галовица",
      "longitude": 20.312433,
      "latitude": 44.797347
    },
    {
      "id": "_13",
      "label": "Малињак",
      "longitude": 20.319391,
      "latitude": 44.798375
    },
    {
      "id": "_14",
      "label": "JAT Tehnika",
      "longitude": 20.29133,
      "latitude": 44.813774
    },
    {
      "id": "_15",
      "label": "Робни Терминал",
      "longitude": 20.288811,
      "latitude": 44.817283
    },
    {
      "id": "_16",
      "label": "Пут за Соко Салаш",
      "longitude": 20.284487,
      "latitude": 44.833352
    },
    {
      "id": "_17",
      "label": "Насеље Радиофар",
      "longitude": 20.31176,
      "latitude": 44.834214
    },
    {
      "id": "_18",
      "label": "Икарбус",
      "longitude": 20.348286,
      "latitude": 44.833356
    },
    {
      "id": "_19",
      "label": "Грмеч",
      "longitude": 20.359356,
      "latitude": 44.832458
    },
    {
      "id": "_20",
      "label": "Змај",
      "longitude": 20.371576,
      "latitude": 44.830946
    },
    {
      "id": "_21",
      "label": "Бежанијска Коса",
      "longitude": 20.38867,
      "latitude": 44.826571
    },
    {
      "id": "_22",
      "label": "Тошин Бунар",
      "longitude": 20.399637,
      "latitude": 44.821543
    },
    {
      "id": "_23",
      "label": "Зорана Ђинђића булевар",
      "longitude": 20.409674,
      "latitude": 44.820064
    },
    {
      "id": "_24",
      "label": "ГО Нови Београд",
      "longitude": 20.412667,
      "latitude": 44.823377
    },
    {
      "id": "_25",
      "label": "Архив",
      "longitude": 20.412968,
      "latitude": 44.825488
    },
    {
      "id": "_26",
      "label": "Маршала Толбухина булевар",
      "longitude": 20.411664,
      "latitude": 44.829255
    },
    {
      "id": "_27",
      "label": "Нови Београд /Павильони/",
      "longitude": 20.404766,
      "latitude": 44.830419
    },
    {
      "id": "_28",
      "label": "Нови Београд /Павильони/",
      "longitude": 20.404275,
      "latitude": 44.830043
    }
  ]
}