{
  "direction_a": [
    {
      "id": "_1",
      "label": "Зелени венац",
      "longitude": 20.456704,
      "latitude": 44.814052
    },
    {
      "id": "_2",
      "label": "Бранков мост",
      "longitude": 20.452286,
      "latitude": 44.815386
    },
    {
      "id": "_3",
      "label": "Шест Каплара",
      "longitude": 20.433538,
      "latitude": 44.815291
    },
    {
      "id": "_4",
      "label": "Палата Србија",
      "longitude": 20.429748,
      "latitude": 44.816931
    },
    {
      "id": "_5",
      "label": "Шпанских Бораца",
      "longitude": 20.423498,
      "latitude": 44.81972
    },
    {
      "id": "_6",
      "label": "Зорана Ђинђића булевар",
      "longitude": 20.41554,
      "latitude": 44.820612
    },
    {
      "id": "_7",
      "label": "Блок 29",
      "longitude": 20.41304,
      "latitude": 44.817766
    },
    {
      "id": "_8",
      "label": "Факутет Драмских Уметности",
      "longitude": 20.410465,
      "latitude": 44.814923
    },
    {
      "id": "_9",
      "label": "Уметности булевар",
      "longitude": 20.408277,
      "latitude": 44.813602
    },
    {
      "id": "_10",
      "label": "Омладинских Бригада 1",
      "longitude": 20.404108,
      "latitude": 44.815509
    },
    {
      "id": "_11",
      "label": "Народних Хероја",
      "longitude": 20.399804,
      "latitude": 44.817475
    },
    {
      "id": "_12",
      "label": "Железничка Станица Тошин Бунар",
      "longitude": 20.395053,
      "latitude": 44.817222
    },
    {
      "id": "_13",
      "label": "Стари Аеродром",
      "longitude": 20.392808,
      "latitude": 44.814103
    },
    {
      "id": "_14",
      "label": "ИМТ",
      "longitude": 20.389638,
      "latitude": 44.812513
    },
    {
      "id": "_15",
      "label": "Гандијева 1",
      "longitude": 20.381948,
      "latitude": 44.810315
    },
    {
      "id": "_16",
      "label": "Бежанија Пијаца",
      "longitude": 20.37774,
      "latitude": 44.808581
    },
    {
      "id": "_17",
      "label": "Црква Св.Георгија",
      "longitude": 20.374628,
      "latitude": 44.807325
    },
    {
      "id": "_18",
      "label": "Душана Вукасовића",
      "longitude": 20.370581,
      "latitude": 44.805672
    },
    {
      "id": "_19",
      "label": "Сурчинска",
      "longitude": 20.36689,
      "latitude": 44.804157
    },
    {
      "id": "_20",
      "label": "Недељка Гвозденовића",
      "longitude": 20.359747,
      "latitude": 44.807719
    },
    {
      "id": "_21",
      "label": "Биодекор",
      "longitude": 20.352385,
      "latitude": 44.806458
    },
    {
      "id": "_22",
      "label": "Ледине",
      "longitude": 20.348962,
      "latitude": 44.805118
    }
  ],
  "direction_b": [
    {
      "id": "_1",
      "label": "Ледине",
      "longitude": 20.348962,
      "latitude": 44.805118
    },
    {
      "id": "_2",
      "label": "Биодекор",
      "longitude": 20.35338,
      "latitude": 44.806629
    },
    {
      "id": "_3",
      "label": "Недељка Гвозденовића",
      "longitude": 20.360225,
      "latitude": 44.807542
    },
    {
      "id": "_4",
      "label": "Сурчинска",
      "longitude": 20.367064,
      "latitude": 44.80393
    },
    {
      "id": "_5",
      "label": "Душана Вукасовића",
      "longitude": 20.372252,
      "latitude": 44.806031
    },
    {
      "id": "_6",
      "label": "Црква Св.Георгија",
      "longitude": 20.375897,
      "latitude": 44.807489
    },
    {
      "id": "_7",
      "label": "Бежанија Пијаца",
      "longitude": 20.378641,
      "latitude": 44.808604
    },
    {
      "id": "_8",
      "label": "Гандијева",
      "longitude": 20.383477,
      "latitude": 44.81069
    },
    {
      "id": "_9",
      "label": "ИМТ",
      "longitude": 20.391258,
      "latitude": 44.812825
    },
    {
      "id": "_10",
      "label": "Железничка Станица Тошин Бунар",
      "longitude": 20.395281,
      "latitude": 44.816813
    },
    {
      "id": "_11",
      "label": "Народних Хероја",
      "longitude": 20.401161,
      "latitude": 44.816449
    },
    {
      "id": "_12",
      "label": "Омладинских Бригада 1",
      "longitude": 20.405592,
      "latitude": 44.814423
    },
    {
      "id": "_13",
      "label": "Блок 28",
      "longitude": 20.409649,
      "latitude": 44.813597
    },
    {
      "id": "_14",
      "label": "Факутет Драмских Уметности",
      "longitude": 20.411428,
      "latitude": 44.815546
    },
    {
      "id": "_15",
      "label": "Блок 29",
      "longitude": 20.413389,
      "latitude": 44.817663
    },
    {
      "id": "_16",
      "label": "Зорана Ђинђића булевар",
      "longitude": 20.416299,
      "latitude": 44.820943
    },
    {
      "id": "_17",
      "label": "Блок 30",
      "longitude": 20.418305,
      "latitude": 44.821759
    },
    {
      "id": "_18",
      "label": "Шпанских Бораца",
      "longitude": 20.42308,
      "latitude": 44.819617
    },
    {
      "id": "_19",
      "label": "Палата Србија",
      "longitude": 20.428643,
      "latitude": 44.817131
    },
    {
      "id": "_20",
      "label": "Шест Каплара",
      "longitude": 20.433229,
      "latitude": 44.815093
    },
    {
      "id": "_21",
      "label": "Бранков мост",
      "longitude": 20.452112,
      "latitude": 44.81492
    },
    {
      "id": "_22",
      "label": "Зелени венац",
      "longitude": 20.456704,
      "latitude": 44.814052
    }
  ]
}