{
  "direction_a": [
    {
      "id": "_1",
      "label": "Зелени венац",
      "longitude": 20.456704,
      "latitude": 44.814052
    },
    {
      "id": "_2",
      "label": "Бранков мост",
      "longitude": 20.452286,
      "latitude": 44.815386
    },
    {
      "id": "_3",
      "label": "Шест Каплара",
      "longitude": 20.433538,
      "latitude": 44.815291
    },
    {
      "id": "_4",
      "label": "Палата Србија",
      "longitude": 20.429748,
      "latitude": 44.816931
    },
    {
      "id": "_5",
      "label": "Шпанских Бораца",
      "longitude": 20.423498,
      "latitude": 44.81972
    },
    {
      "id": "_6",
      "label": "Блок 30",
      "longitude": 20.416712,
      "latitude": 44.822821
    },
    {
      "id": "_7",
      "label": "Улаз у Париске Комуне",
      "longitude": 20.412069,
      "latitude": 44.824849
    },
    {
      "id": "_8",
      "label": "Фонтана",
      "longitude": 20.407603,
      "latitude": 44.826679
    },
    {
      "id": "_9",
      "label": "Студентска",
      "longitude": 20.402445,
      "latitude": 44.826272
    },
    {
      "id": "_10",
      "label": "Студентски Град",
      "longitude": 20.396888,
      "latitude": 44.826822
    },
    {
      "id": "_11",
      "label": "СЦ 11. Април",
      "longitude": 20.392916,
      "latitude": 44.826457
    },
    {
      "id": "_12",
      "label": "Стојана Аралице",
      "longitude": 20.388541,
      "latitude": 44.822813
    },
    {
      "id": "_13",
      "label": "Николе Добровића",
      "longitude": 20.384668,
      "latitude": 44.818864
    },
    {
      "id": "_14",
      "label": "Др Хуга Клајна",
      "longitude": 20.381288,
      "latitude": 44.819872
    },
    {
      "id": "_15",
      "label": "Пеђе Милосављевића",
      "longitude": 20.377053,
      "latitude": 44.818114
    },
    {
      "id": "_16",
      "label": "Љубинке Бобић",
      "longitude": 20.373633,
      "latitude": 44.814585
    },
    {
      "id": "_17",
      "label": "Марка Ристића",
      "longitude": 20.370551,
      "latitude": 44.812178
    },
    {
      "id": "_18",
      "label": "Милана Вујаклије",
      "longitude": 20.367598,
      "latitude": 44.810155
    },
    {
      "id": "_19",
      "label": "Магеланова",
      "longitude": 20.364685,
      "latitude": 44.808488
    },
    {
      "id": "_20",
      "label": "Бежанијска Коса",
      "longitude": 20.362596,
      "latitude": 44.808389
    }
  ],
  "direction_b": [
    {
      "id": "_1",
      "label": "Бежанијска Коса",
      "longitude": 20.362915,
      "latitude": 44.807938
    },
    {
      "id": "_2",
      "label": "Магеланова",
      "longitude": 20.365541,
      "latitude": 44.808794
    },
    {
      "id": "_3",
      "label": "Милана Вујаклије",
      "longitude": 20.3684,
      "latitude": 44.810505
    },
    {
      "id": "_4",
      "label": "Марка Ристића",
      "longitude": 20.371273,
      "latitude": 44.812503
    },
    {
      "id": "_5",
      "label": "Љубинке Бобић",
      "longitude": 20.37458,
      "latitude": 44.815265
    },
    {
      "id": "_6",
      "label": "Пеђе Милосављевића",
      "longitude": 20.376906,
      "latitude": 44.817753
    },
    {
      "id": "_7",
      "label": "Др Хуга Клајна",
      "longitude": 20.379526,
      "latitude": 44.820017
    },
    {
      "id": "_8",
      "label": "Марка Челебоновића",
      "longitude": 20.382664,
      "latitude": 44.819253
    },
    {
      "id": "_9",
      "label": "Николе Добровића",
      "longitude": 20.385818,
      "latitude": 44.818889
    },
    {
      "id": "_10",
      "label": "Стојана Аралице",
      "longitude": 20.388192,
      "latitude": 44.822066
    },
    {
      "id": "_11",
      "label": "СЦ 11. Април",
      "longitude": 20.393868,
      "latitude": 44.827034
    },
    {
      "id": "_12",
      "label": "Студентски Град",
      "longitude": 20.398985,
      "latitude": 44.826272
    },
    {
      "id": "_13",
      "label": "Студентска",
      "longitude": 20.403269,
      "latitude": 44.826964
    },
    {
      "id": "_14",
      "label": "Фонтана",
      "longitude": 20.409438,
      "latitude": 44.825654
    },
    {
      "id": "_15",
      "label": "ГО Нови Београд",
      "longitude": 20.414298,
      "latitude": 44.823536
    },
    {
      "id": "_16",
      "label": "Блок 30",
      "longitude": 20.418305,
      "latitude": 44.821759
    },
    {
      "id": "_17",
      "label": "Шпанских Бораца",
      "longitude": 20.42308,
      "latitude": 44.819617
    },
    {
      "id": "_18",
      "label": "Палата Србија",
      "longitude": 20.428643,
      "latitude": 44.817131
    },
    {
      "id": "_19",
      "label": "Шест Каплара",
      "longitude": 20.433229,
      "latitude": 44.815093
    },
    {
      "id": "_20",
      "label": "Бранков мост",
      "longitude": 20.452112,
      "latitude": 44.81492
    },
    {
      "id": "_21",
      "label": "Зелени венац",
      "longitude": 20.456704,
      "latitude": 44.814052
    }
  ]
}