{
  "direction_a": [
    {
      "id": "_1",
      "label": "Звездара",
      "longitude": 20.506912,
      "latitude": 44.798204
    },
    {
      "id": "_2",
      "label": "Милоша Јанковића",
      "longitude": 20.503898,
      "latitude": 44.799286
    },
    {
      "id": "_3",
      "label": "Градска болница",
      "longitude": 20.499418,
      "latitude": 44.800008
    },
    {
      "id": "_4",
      "label": "Чегарска",
      "longitude": 20.496038,
      "latitude": 44.800718
    },
    {
      "id": "_5",
      "label": "Живојина Жујовића",
      "longitude": 20.492812,
      "latitude": 44.80151
    },
    {
      "id": "_6",
      "label": "Марка Орешковића",
      "longitude": 20.486946,
      "latitude": 44.804113
    },
    {
      "id": "_7",
      "label": "Подвожњак",
      "longitude": 20.483904,
      "latitude": 44.806086
    },
    {
      "id": "_8",
      "label": "Здравка Челара",
      "longitude": 20.479165,
      "latitude": 44.811672
    },
    {
      "id": "_9",
      "label": "Јаше Продановића",
      "longitude": 20.476625,
      "latitude": 44.815165
    },
    {
      "id": "_10",
      "label": "27. марта",
      "longitude": 20.471384,
      "latitude": 44.812965
    },
    {
      "id": "_11",
      "label": "Македонска /Политика/",
      "longitude": 20.464313,
      "latitude": 44.815549
    },
    {
      "id": "_12",
      "label": "Зелени венац",
      "longitude": 20.457047,
      "latitude": 44.814461
    },
    {
      "id": "_13",
      "label": "Бранков мост",
      "longitude": 20.452359,
      "latitude": 44.815207
    },
    {
      "id": "_14",
      "label": "Шест Каплара",
      "longitude": 20.433538,
      "latitude": 44.815291
    },
    {
      "id": "_15",
      "label": "Палата Србија",
      "longitude": 20.429748,
      "latitude": 44.816931
    },
    {
      "id": "_16",
      "label": "Шпанских Бораца",
      "longitude": 20.423498,
      "latitude": 44.81972
    },
    {
      "id": "_17",
      "label": "Блок 30",
      "longitude": 20.416712,
      "latitude": 44.822821
    },
    {
      "id": "_18",
      "label": "Улаз у Париске Комуне",
      "longitude": 20.412069,
      "latitude": 44.824849
    },
    {
      "id": "_19",
      "label": "Фонтана",
      "longitude": 20.407603,
      "latitude": 44.826679
    },
    {
      "id": "_20",
      "label": "Студентска",
      "longitude": 20.402445,
      "latitude": 44.826272
    },
    {
      "id": "_21",
      "label": "Студентски Град",
      "longitude": 20.396888,
      "latitude": 44.826822
    },
    {
      "id": "_22",
      "label": "Зеленгорска",
      "longitude": 20.38897,
      "latitude": 44.827636
    },
    {
      "id": "_23",
      "label": "Расадник",
      "longitude": 20.389246,
      "latitude": 44.830436
    },
    {
      "id": "_24",
      "label": "Дом Пензионера",
      "longitude": 20.390609,
      "latitude": 44.833447
    },
    {
      "id": "_25",
      "label": "КБЦ Бежанијска Коса",
      "longitude": 20.382804,
      "latitude": 44.829243
    },
    {
      "id": "_26",
      "label": "Бежанијска Коса /Болница/",
      "longitude": 20.37988,
      "latitude": 44.829919
    }
  ],
  "direction_b": [
    {
      "id": "_1",
      "label": "Бежанијска Коса /Болница/",
      "longitude": 20.37988,
      "latitude": 44.829919
    },
    {
      "id": "_2",
      "label": "КБЦ Бежанијска Коса",
      "longitude": 20.383453,
      "latitude": 44.828956
    },
    {
      "id": "_3",
      "label": "Зеленгорска",
      "longitude": 20.38938,
      "latitude": 44.827471
    },
    {
      "id": "_4",
      "label": "СЦ 11. Април",
      "longitude": 20.393868,
      "latitude": 44.827034
    },
    {
      "id": "_5",
      "label": "Студентски Град",
      "longitude": 20.398985,
      "latitude": 44.826272
    },
    {
      "id": "_6",
      "label": "Студентска",
      "longitude": 20.403269,
      "latitude": 44.826964
    },
    {
      "id": "_7",
      "label": "Фонтана",
      "longitude": 20.409438,
      "latitude": 44.825654
    },
    {
      "id": "_8",
      "label": "ГО Нови Београд",
      "longitude": 20.414298,
      "latitude": 44.823536
    },
    {
      "id": "_9",
      "label": "Блок 30",
      "longitude": 20.418305,
      "latitude": 44.821759
    },
    {
      "id": "_10",
      "label": "Шпанских Бораца",
      "longitude": 20.42308,
      "latitude": 44.819617
    },
    {
      "id": "_11",
      "label": "Палата Србија",
      "longitude": 20.428643,
      "latitude": 44.817131
    },
    {
      "id": "_12",
      "label": "Шест Каплара",
      "longitude": 20.433229,
      "latitude": 44.815093
    },
    {
      "id": "_13",
      "label": "Бранков мост",
      "longitude": 20.452112,
      "latitude": 44.81492
    },
    {
      "id": "_14",
      "label": "Зелени венац",
      "longitude": 20.456843,
      "latitude": 44.814282
    },
    {
      "id": "_15",
      "label": "Македонска /Политика/",
      "longitude": 20.465161,
      "latitude": 44.815239
    },
    {
      "id": "_16",
      "label": "27. марта",
      "longitude": 20.472663,
      "latitude": 44.81355
    },
    {
      "id": "_17",
      "label": "Јаше Продановића",
      "longitude": 20.477338,
      "latitude": 44.814786
    },
    {
      "id": "_18",
      "label": "Здравка Челара",
      "longitude": 20.479409,
      "latitude": 44.810909
    },
    {
      "id": "_19",
      "label": "Подвожњак",
      "longitude": 20.483502,
      "latitude": 44.806269
    },
    {
      "id": "_20",
      "label": "Марка Орешковића",
      "longitude": 20.488477,
      "latitude": 44.803144
    },
    {
      "id": "_21",
      "label": "Шабачка",
      "longitude": 20.493544,
      "latitude": 44.801129
    },
    {
      "id": "_22",
      "label": "Градска болница",
      "longitude": 20.500339,
      "latitude": 44.799673
    },
    {
      "id": "_23",
      "label": "Милоша Јанковића",
      "longitude": 20.503121,
      "latitude": 44.799293
    },
    {
      "id": "_24",
      "label": "Звездара",
      "longitude": 20.506912,
      "latitude": 44.798204
    }
  ]
}