{
  "direction_a": [
    {
      "id": "_1",
      "label": "Нови Београд /Павильони/",
      "longitude": 20.404275,
      "latitude": 44.830043
    },
    {
      "id": "_2",
      "label": "Џона Кенедија",
      "longitude": 20.409969,
      "latitude": 44.834214
    },
    {
      "id": "_3",
      "label": "Прве пруге ретензија",
      "longitude": 20.410514,
      "latitude": 44.836725
    },
    {
      "id": "_4",
      "label": "Александра Дубчека",
      "longitude": 20.410589,
      "latitude": 44.839235
    },
    {
      "id": "_5",
      "label": "КБЦ Земун",
      "longitude": 20.406509,
      "latitude": 44.841061
    },
    {
      "id": "_6",
      "label": "Новоградска",
      "longitude": 20.402008,
      "latitude": 44.845505
    },
    {
      "id": "_7",
      "label": "Угриновачка",
      "longitude": 20.399291,
      "latitude": 44.84654
    },
    {
      "id": "_8",
      "label": "Стадион Земун",
      "longitude": 20.396032,
      "latitude": 44.84774
    },
    {
      "id": "_9",
      "label": "Бранка Пешића",
      "longitude": 20.391285,
      "latitude": 44.849392
    },
    {
      "id": "_10",
      "label": "Филипа Вишњића",
      "longitude": 20.387597,
      "latitude": 44.849919
    },
    {
      "id": "_11",
      "label": "Задругарска",
      "longitude": 20.38205,
      "latitude": 44.85022
    },
    {
      "id": "_12",
      "label": "Главни Поштански Центар",
      "longitude": 20.373282,
      "latitude": 44.848187
    },
    {
      "id": "_13",
      "label": "Добановачки Пут",
      "longitude": 20.369031,
      "latitude": 44.847434
    },
    {
      "id": "_14",
      "label": "Абебе Бикила",
      "longitude": 20.365528,
      "latitude": 44.847076
    },
    {
      "id": "_15",
      "label": "Зира Адамовића",
      "longitude": 20.36163,
      "latitude": 44.846681
    },
    {
      "id": "_16",
      "label": "Вртић Милица",
      "longitude": 20.358422,
      "latitude": 44.846347
    },
    {
      "id": "_17",
      "label": "Павла Вујисића",
      "longitude": 20.356145,
      "latitude": 44.847236
    },
    {
      "id": "_18",
      "label": "Виктора Старчића",
      "longitude": 20.35173,
      "latitude": 44.850332
    },
    {
      "id": "_19",
      "label": "Кортесарова",
      "longitude": 20.348509,
      "latitude": 44.852357
    },
    {
      "id": "_20",
      "label": "Константина Кавафија",
      "longitude": 20.346661,
      "latitude": 44.853591
    },
    {
      "id": "_21",
      "label": "Дијега Ривере",
      "longitude": 20.340991,
      "latitude": 44.857136
    },
    {
      "id": "_22",
      "label": "Алтина 1",
      "longitude": 20.339465,
      "latitude": 44.859303
    }
  ],
  "direction_b": [
    {
      "id": "_1",
      "label": "Алтина 1",
      "longitude": 20.339465,
      "latitude": 44.859303
    },
    {
      "id": "_2",
      "label": "Дијега Ривере",
      "longitude": 20.341361,
      "latitude": 44.856795
    },
    {
      "id": "_3",
      "label": "Константина Кавафија",
      "longitude": 20.347069,
      "latitude": 44.853152
    },
    {
      "id": "_4",
      "label": "Епископа Николаја",
      "longitude": 20.349944,
      "latitude": 44.851312
    },
    {
      "id": "_5",
      "label": "Виктора Старчића",
      "longitude": 20.352075,
      "latitude": 44.850023
    },
    {
      "id": "_6",
      "label": "Павла Вујисића",
      "longitude": 20.356505,
      "latitude": 44.846801
    },
    {
      "id": "_7",
      "label": "Вртић Милица",
      "longitude": 20.357543,
      "latitude": 44.846151
    },
    {
      "id": "_8",
      "label": "Зира Адамовића",
      "longitude": 20.361813,
      "latitude": 44.846615
    },
    {
      "id": "_9",
      "label": "Абебе Бикила",
      "longitude": 20.364712,
      "latitude": 44.846915
    },
    {
      "id": "_10",
      "label": "Добановачки Пут",
      "longitude": 20.370632,
      "latitude": 44.847493
    },
    {
      "id": "_11",
      "label": "Главни Поштански Центар",
      "longitude": 20.373483,
      "latitude": 44.848073
    },
    {
      "id": "_12",
      "label": "Задругарска",
      "longitude": 20.383085,
      "latitude": 44.850178
    },
    {
      "id": "_13",
      "label": "Филипа Вишњића",
      "longitude": 20.385794,
      "latitude": 44.849953
    },
    {
      "id": "_14",
      "label": "Бранка Пешића",
      "longitude": 20.392092,
      "latitude": 44.848995
    },
    {
      "id": "_15",
      "label": "Стадион Земун",
      "longitude": 20.396883,
      "latitude": 44.847261
    },
    {
      "id": "_16",
      "label": "Новоградска",
      "longitude": 20.401689,
      "latitude": 44.845502
    },
    {
      "id": "_17",
      "label": "КБЦ Земун",
      "longitude": 20.407027,
      "latitude": 44.840355
    },
    {
      "id": "_18",
      "label": "Александра Дубчека",
      "longitude": 20.410784,
      "latitude": 44.839016
    },
    {
      "id": "_19",
      "label": "Џона Кенедија",
      "longitude": 20.409639,
      "latitude": 44.834083
    },
    {
      "id": "_20",
      "label": "Нови Београд /Павильони/",
      "longitude": 20.404766,
      "latitude": 44.830419
    },
    {
      "id": "_21",
      "label": "Нови Београд /Павильони/",
      "longitude": 20.404275,
      "latitude": 44.830043
    }
  ]
}