{
  "direction_a": [
    {
      "id": "_1",
      "label": "Црвени Крст",
      "longitude": 20.486484,
      "latitude": 44.797891
    },
    {
      "id": "_2",
      "label": "Војводе Драгомира",
      "longitude": 20.480401,
      "latitude": 44.798072
    },
    {
      "id": "_3",
      "label": "Новопазарска",
      "longitude": 20.474085,
      "latitude": 44.797926
    },
    {
      "id": "_4",
      "label": "Катанићева",
      "longitude": 20.471284,
      "latitude": 44.799998
    },
    {
      "id": "_5",
      "label": "Трг Славија /Немањина/",
      "longitude": 20.464665,
      "latitude": 44.803175
    },
    {
      "id": "_6",
      "label": "Кнеза Милоша",
      "longitude": 20.461451,
      "latitude": 44.805164
    },
    {
      "id": "_7",
      "label": "Савски трг",
      "longitude": 20.456752,
      "latitude": 44.808511
    },
    {
      "id": "_8",
      "label": "Економски факултет",
      "longitude": 20.452973,
      "latitude": 44.810791
    },
    {
      "id": "_9",
      "label": "Старо Сајмиште",
      "longitude": 20.441709,
      "latitude": 44.812029
    },
    {
      "id": "_10",
      "label": "Шест Каплара",
      "longitude": 20.433538,
      "latitude": 44.815291
    },
    {
      "id": "_11",
      "label": "Палата Србија",
      "longitude": 20.429748,
      "latitude": 44.816931
    },
    {
      "id": "_12",
      "label": "Шпанских Бораца",
      "longitude": 20.423498,
      "latitude": 44.81972
    },
    {
      "id": "_13",
      "label": "Блок 30",
      "longitude": 20.416712,
      "latitude": 44.822821
    },
    {
      "id": "_14",
      "label": "Архив",
      "longitude": 20.412968,
      "latitude": 44.825488
    },
    {
      "id": "_15",
      "label": "Маршала Толбухина булевар",
      "longitude": 20.411664,
      "latitude": 44.829255
    },
    {
      "id": "_16",
      "label": "Џона Кенедија",
      "longitude": 20.409969,
      "latitude": 44.834214
    },
    {
      "id": "_17",
      "label": "Прве пруге ретензија",
      "longitude": 20.410514,
      "latitude": 44.836725
    },
    {
      "id": "_18",
      "label": "Пољопривредни факултет",
      "longitude": 20.412911,
      "latitude": 44.839425
    },
    {
      "id": "_19",
      "label": "Земун /пошта/",
      "longitude": 20.413413,
      "latitude": 44.842187
    },
    {
      "id": "_20",
      "label": "Бранка Радичевића трг",
      "longitude": 20.409701,
      "latitude": 44.845952
    },
    {
      "id": "_21",
      "label": "Душанова",
      "longitude": 20.401783,
      "latitude": 44.849124
    },
    {
      "id": "_22",
      "label": "Угриновачка",
      "longitude": 20.399291,
      "latitude": 44.84654
    },
    {
      "id": "_23",
      "label": "Стадион Земун",
      "longitude": 20.396032,
      "latitude": 44.84774
    },
    {
      "id": "_24",
      "label": "Бранка Пешића",
      "longitude": 20.391285,
      "latitude": 44.849392
    },
    {
      "id": "_25",
      "label": "Филипа Вишњића",
      "longitude": 20.387597,
      "latitude": 44.849919
    },
    {
      "id": "_26",
      "label": "Задругарска",
      "longitude": 20.38205,
      "latitude": 44.85022
    },
    {
      "id": "_27",
      "label": "Земун /Бачка/ ",
      "longitude": 20.379727,
      "latitude": 44.848443
    }
  ],
  "direction_b": [
    {
      "id": "_1",
      "label": "Земун /Бачка/ ",
      "longitude": 20.379727,
      "latitude": 44.848443
    },
    {
      "id": "_2",
      "label": "Задругарска",
      "longitude": 20.383085,
      "latitude": 44.850178
    },
    {
      "id": "_3",
      "label": "Филипа Вишњића",
      "longitude": 20.385794,
      "latitude": 44.849953
    },
    {
      "id": "_4",
      "label": "Бранка Пешића",
      "longitude": 20.392092,
      "latitude": 44.848995
    },
    {
      "id": "_5",
      "label": "Стадион Земун",
      "longitude": 20.396883,
      "latitude": 44.847261
    },
    {
      "id": "_6",
      "label": "Угриновачка",
      "longitude": 20.401343,
      "latitude": 44.84599
    },
    {
      "id": "_7",
      "label": "Душанова",
      "longitude": 20.403137,
      "latitude": 44.848142
    },
    {
      "id": "_8",
      "label": "Бранка Радичевића трг",
      "longitude": 20.408467,
      "latitude": 44.846397
    },
    {
      "id": "_9",
      "label": "РК Београд",
      "longitude": 20.411983,
      "latitude": 44.843533
    },
    {
      "id": "_10",
      "label": "Земун /пошта/",
      "longitude": 20.414234,
      "latitude": 44.840793
    },
    {
      "id": "_11",
      "label": "22 октобра",
      "longitude": 20.411257,
      "latitude": 44.837972
    },
    {
      "id": "_12",
      "label": "Џона Кенедија",
      "longitude": 20.409639,
      "latitude": 44.834083
    },
    {
      "id": "_13",
      "label": "Маршала Толбухина булевар",
      "longitude": 20.411053,
      "latitude": 44.829753
    },
    {
      "id": "_14",
      "label": "Архив",
      "longitude": 20.411997,
      "latitude": 44.827033
    },
    {
      "id": "_15",
      "label": "ГО Нови Београд",
      "longitude": 20.414298,
      "latitude": 44.823536
    },
    {
      "id": "_16",
      "label": "Блок 30",
      "longitude": 20.418305,
      "latitude": 44.821759
    },
    {
      "id": "_17",
      "label": "Шпанских Бораца",
      "longitude": 20.42308,
      "latitude": 44.819617
    },
    {
      "id": "_18",
      "label": "Палата Србија",
      "longitude": 20.428643,
      "latitude": 44.817131
    },
    {
      "id": "_19",
      "label": "Шест Каплара",
      "longitude": 20.433229,
      "latitude": 44.815093
    },
    {
      "id": "_20",
      "label": "Старо Сајмиште",
      "longitude": 20.4389,
      "latitude": 44.811894
    },
    {
      "id": "_21",
      "label": "Економски факултет",
      "longitude": 20.454113,
      "latitude": 44.810705
    },
    {
      "id": "_22",
      "label": "Савски трг",
      "longitude": 20.456618,
      "latitude": 44.80779
    },
    {
      "id": "_23",
      "label": "Кнеза Милоша",
      "longitude": 20.460639,
      "latitude": 44.805391
    },
    {
      "id": "_24",
      "label": "Трг Славија /Немањина/",
      "longitude": 20.464426,
      "latitude": 44.803102
    },
    {
      "id": "_25",
      "label": "Катанићева",
      "longitude": 20.47173,
      "latitude": 44.799452
    },
    {
      "id": "_26",
      "label": "Мачванска",
      "longitude": 20.473985,
      "latitude": 44.797783
    },
    {
      "id": "_27",
      "label": "Војводе Драгомира",
      "longitude": 20.479197,
      "latitude": 44.797926
    },
    {
      "id": "_28",
      "label": "Црвени Крст",
      "longitude": 20.486484,
      "latitude": 44.797891
    }
  ]
}