{
  "direction_a": [
    {
      "id": "_1",
      "label": "Зелени венац",
      "longitude": 20.456704,
      "latitude": 44.814052
    },
    {
      "id": "_2",
      "label": "Бранков мост",
      "longitude": 20.452286,
      "latitude": 44.815386
    },
    {
      "id": "_3",
      "label": "Ушће",
      "longitude": 20.439342,
      "latitude": 44.815116
    },
    {
      "id": "_4",
      "label": "Палата Србија",
      "longitude": 20.430193,
      "latitude": 44.821002
    },
    {
      "id": "_5",
      "label": "Хотел Југославија",
      "longitude": 20.419582,
      "latitude": 44.829087
    },
    {
      "id": "_6",
      "label": "Џона Кенедија",
      "longitude": 20.41826,
      "latitude": 44.835262
    },
    {
      "id": "_7",
      "label": "Карађорђев трг",
      "longitude": 20.416841,
      "latitude": 44.837953
    },
    {
      "id": "_8",
      "label": "Земун /пошта/",
      "longitude": 20.413413,
      "latitude": 44.842187
    },
    {
      "id": "_9",
      "label": "Бранка Радичевића трг",
      "longitude": 20.409701,
      "latitude": 44.845952
    },
    {
      "id": "_10",
      "label": "Наде Димић",
      "longitude": 20.402786,
      "latitude": 44.849187
    },
    {
      "id": "_11",
      "label": "Дунавска",
      "longitude": 20.397856,
      "latitude": 44.851003
    },
    {
      "id": "_12",
      "label": "Тршћанска",
      "longitude": 20.390582,
      "latitude": 44.853754
    },
    {
      "id": "_13",
      "label": "Филипа Вишњића",
      "longitude": 20.386784,
      "latitude": 44.855219
    },
    {
      "id": "_14",
      "label": "Руска",
      "longitude": 20.380977,
      "latitude": 44.857808
    },
    {
      "id": "_15",
      "label": "Земун /Горњи град/ ",
      "longitude": 20.378212,
      "latitude": 44.859031
    },
    {
      "id": "_16",
      "label": "Светозара Папића",
      "longitude": 20.370452,
      "latitude": 44.854732
    },
    {
      "id": "_17",
      "label": "Милице Шуваковић",
      "longitude": 20.374017,
      "latitude": 44.858839
    },
    {
      "id": "_18",
      "label": "Милице Шуваковић 1",
      "longitude": 20.367903,
      "latitude": 44.860264
    },
    {
      "id": "_19",
      "label": "Михајла Вукше",
      "longitude": 20.368357,
      "latitude": 44.8581
    },
    {
      "id": "_20",
      "label": "Нова Галеника",
      "longitude": 20.370052,
      "latitude": 44.85717
    }
  ],
  "direction_b": [
    {
      "id": "_1",
      "label": "Нова Галеника",
      "longitude": 20.370052,
      "latitude": 44.85717
    },
    {
      "id": "_2",
      "label": "Михајла Вукше",
      "longitude": 20.367727,
      "latitude": 44.858457
    },
    {
      "id": "_3",
      "label": "Милице Шуваковић 1",
      "longitude": 20.368257,
      "latitude": 44.86051
    },
    {
      "id": "_4",
      "label": "Милице Шуваковић",
      "longitude": 20.373722,
      "latitude": 44.858837
    },
    {
      "id": "_5",
      "label": "Светозара Папића",
      "longitude": 20.369975,
      "latitude": 44.854511
    },
    {
      "id": "_6",
      "label": "Земун /Горњи град/ ",
      "longitude": 20.37815,
      "latitude": 44.85889
    },
    {
      "id": "_7",
      "label": "Руска",
      "longitude": 20.38172,
      "latitude": 44.857304
    },
    {
      "id": "_8",
      "label": "Филипа Вишњића",
      "longitude": 20.387565,
      "latitude": 44.854709
    },
    {
      "id": "_9",
      "label": "Тршћанска",
      "longitude": 20.391693,
      "latitude": 44.853165
    },
    {
      "id": "_10",
      "label": "Дунавска",
      "longitude": 20.396757,
      "latitude": 44.851288
    },
    {
      "id": "_11",
      "label": "Наде Димић",
      "longitude": 20.402336,
      "latitude": 44.849214
    },
    {
      "id": "_12",
      "label": "Бранка Радичевића трг",
      "longitude": 20.408467,
      "latitude": 44.846397
    },
    {
      "id": "_13",
      "label": "РК Београд",
      "longitude": 20.411983,
      "latitude": 44.843533
    },
    {
      "id": "_14",
      "label": "Земун /пошта/",
      "longitude": 20.414234,
      "latitude": 44.840793
    },
    {
      "id": "_15",
      "label": "Карађорђев трг",
      "longitude": 20.417246,
      "latitude": 44.837067
    },
    {
      "id": "_16",
      "label": "Џона Кенедија",
      "longitude": 20.418327,
      "latitude": 44.833261
    },
    {
      "id": "_17",
      "label": "Хотел Југославија",
      "longitude": 20.419617,
      "latitude": 44.827233
    },
    {
      "id": "_18",
      "label": "Палата Србија",
      "longitude": 20.431116,
      "latitude": 44.820311
    },
    {
      "id": "_19",
      "label": "Ушће",
      "longitude": 20.438977,
      "latitude": 44.815146
    },
    {
      "id": "_20",
      "label": "Бранков мост",
      "longitude": 20.452112,
      "latitude": 44.81492
    },
    {
      "id": "_21",
      "label": "Зелени венац",
      "longitude": 20.456704,
      "latitude": 44.814052
    }
  ]
}