{
  "direction_a": [
    {
      "id": "_1",
      "label": "Савски трг",
      "longitude": 20.455596,
      "latitude": 44.807795
    },
    {
      "id": "_2",
      "label": "Палата Правде",
      "longitude": 20.452917,
      "latitude": 44.804446
    },
    {
      "id": "_3",
      "label": "Сајам",
      "longitude": 20.44171,
      "latitude": 44.796529
    },
    {
      "id": "_4",
      "label": "Чукарица",
      "longitude": 20.414529,
      "latitude": 44.786454
    },
    {
      "id": "_5",
      "label": "СРЦ Макиш",
      "longitude": 20.405761,
      "latitude": 44.785005
    },
    {
      "id": "_6",
      "label": "Макишка",
      "longitude": 20.394243,
      "latitude": 44.783144
    },
    {
      "id": "_7",
      "label": "Рени Бунар",
      "longitude": 20.381661,
      "latitude": 44.77861
    },
    {
      "id": "_8",
      "label": "Таложник",
      "longitude": 20.374422,
      "latitude": 44.775259
    },
    {
      "id": "_9",
      "label": "Водовод",
      "longitude": 20.369513,
      "latitude": 44.773404
    },
    {
      "id": "_10",
      "label": "МЗ Макиш",
      "longitude": 20.361947,
      "latitude": 44.770843
    },
    {
      "id": "_11",
      "label": "Неопланта",
      "longitude": 20.357256,
      "latitude": 44.768135
    },
    {
      "id": "_12",
      "label": "ББП Макиш",
      "longitude": 20.353273,
      "latitude": 44.76479
    },
    {
      "id": "_13",
      "label": "Бродотехника",
      "longitude": 20.350905,
      "latitude": 44.762508
    },
    {
      "id": "_14",
      "label": "Рибокомбинат",
      "longitude": 20.346428,
      "latitude": 44.757886
    },
    {
      "id": "_15",
      "label": "Мике Аласа",
      "longitude": 20.342605,
      "latitude": 44.753299
    },
    {
      "id": "_16",
      "label": "Мостоградња",
      "longitude": 20.338708,
      "latitude": 44.747105
    },
    {
      "id": "_17",
      "label": "Надвожњак",
      "longitude": 20.326094,
      "latitude": 44.738427
    },
    {
      "id": "_18",
      "label": "Железнички надвожњак",
      "longitude": 20.321381,
      "latitude": 44.735497
    },
    {
      "id": "_19",
      "label": "МЗ Остружница",
      "longitude": 20.314874,
      "latitude": 44.731568
    },
    {
      "id": "_20",
      "label": "Остружница /Савска/",
      "longitude": 20.311586,
      "latitude": 44.726733
    },
    {
      "id": "_21",
      "label": "Остружница /Лоле Рибара/",
      "longitude": 20.311304,
      "latitude": 44.723001
    },
    {
      "id": "_22",
      "label": "Остружница /Караула/",
      "longitude": 20.309719,
      "latitude": 44.718148
    }
  ],
  "direction_b": [
    {
      "id": "_1",
      "label": "Остружница /Караула/",
      "longitude": 20.309719,
      "latitude": 44.718148
    },
    {
      "id": "_2",
      "label": "Остружница /Лоле Рибара/",
      "longitude": 20.311355,
      "latitude": 44.722816
    },
    {
      "id": "_3",
      "label": "Остружница /Савска/",
      "longitude": 20.311653,
      "latitude": 44.727062
    },
    {
      "id": "_4",
      "label": "МЗ Остружница",
      "longitude": 20.315282,
      "latitude": 44.731678
    },
    {
      "id": "_5",
      "label": "Железнички надвожњак",
      "longitude": 20.32162,
      "latitude": 44.735551
    },
    {
      "id": "_6",
      "label": "Надвожњак",
      "longitude": 20.326523,
      "latitude": 44.73856
    },
    {
      "id": "_7",
      "label": "Мостоградња",
      "longitude": 20.33814,
      "latitude": 44.746497
    },
    {
      "id": "_8",
      "label": "Мике Аласа",
      "longitude": 20.342804,
      "latitude": 44.753459
    },
    {
      "id": "_9",
      "label": "Рибокомбинат",
      "longitude": 20.346546,
      "latitude": 44.757916
    },
    {
      "id": "_10",
      "label": "Бродотехника",
      "longitude": 20.350236,
      "latitude": 44.761676
    },
    {
      "id": "_11",
      "label": "ББП Макиш",
      "longitude": 20.35353,
      "latitude": 44.764911
    },
    {
      "id": "_12",
      "label": "Неопланта",
      "longitude": 20.358025,
      "latitude": 44.768602
    },
    {
      "id": "_13",
      "label": "МЗ Макиш",
      "longitude": 20.362215,
      "latitude": 44.770857
    },
    {
      "id": "_14",
      "label": "Водовод",
      "longitude": 20.369937,
      "latitude": 44.773456
    },
    {
      "id": "_15",
      "label": "Таложник",
      "longitude": 20.374486,
      "latitude": 44.775195
    },
    {
      "id": "_16",
      "label": "Рени Бунар",
      "longitude": 20.382176,
      "latitude": 44.778779
    },
    {
      "id": "_17",
      "label": "Макишка",
      "longitude": 20.394723,
      "latitude": 44.783201
    },
    {
      "id": "_18",
      "label": "СРЦ Макиш",
      "longitude": 20.406178,
      "latitude": 44.784912
    },
    {
      "id": "_19",
      "label": "Чукарица",
      "longitude": 20.41495,
      "latitude": 44.786366
    },
    {
      "id": "_20",
      "label": "Господарска Механа",
      "longitude": 20.433393,
      "latitude": 44.794424
    },
    {
      "id": "_21",
      "label": "Руска",
      "longitude": 20.437784,
      "latitude": 44.795189
    },
    {
      "id": "_22",
      "label": "Сајам",
      "longitude": 20.441944,
      "latitude": 44.796327
    },
    {
      "id": "_23",
      "label": "Дурмиторска",
      "longitude": 20.451415,
      "latitude": 44.802039
    },
    {
      "id": "_24",
      "label": "Палата Правде",
      "longitude": 20.453787,
      "latitude": 44.804951
    },
    {
      "id": "_25",
      "label": "Савски трг",
      "longitude": 20.456752,
      "latitude": 44.808511
    },
    {
      "id": "_26",
      "label": "Савски трг",
      "longitude": 20.455596,
      "latitude": 44.807795
    }
  ]
}