{
  "direction_a": [
    {
      "id": "_1",
      "label": "Земун /Ослобођења Кеј/",
      "longitude": 20.415779,
      "latitude": 44.84349
    },
    {
      "id": "_2",
      "label": "22 октобра",
      "longitude": 20.411257,
      "latitude": 44.837972
    },
    {
      "id": "_3",
      "label": "Џона Кенедија",
      "longitude": 20.409639,
      "latitude": 44.834083
    },
    {
      "id": "_4",
      "label": "Маршала Толбухина булевар",
      "longitude": 20.411053,
      "latitude": 44.829753
    },
    {
      "id": "_5",
      "label": "Архив",
      "longitude": 20.411997,
      "latitude": 44.827033
    },
    {
      "id": "_6",
      "label": "ГО Нови Београд",
      "longitude": 20.411814,
      "latitude": 44.823004
    },
    {
      "id": "_7",
      "label": "Зорана Ђинђића булевар",
      "longitude": 20.409422,
      "latitude": 44.820266
    },
    {
      "id": "_8",
      "label": "Милутина Миланковића",
      "longitude": 20.405643,
      "latitude": 44.816147
    },
    {
      "id": "_9",
      "label": "Омладинских Бригада 1",
      "longitude": 20.404028,
      "latitude": 44.81437
    },
    {
      "id": "_10",
      "label": "Airport City",
      "longitude": 20.401198,
      "latitude": 44.811245
    },
    {
      "id": "_11",
      "label": "Техничка Школа Нови Београд",
      "longitude": 20.399053,
      "latitude": 44.808174
    },
    {
      "id": "_12",
      "label": "Агостина Нета",
      "longitude": 20.405002,
      "latitude": 44.804228
    },
    {
      "id": "_13",
      "label": "Насеље Белвил",
      "longitude": 20.40932,
      "latitude": 44.804027
    },
    {
      "id": "_14",
      "label": "Блок 42",
      "longitude": 20.418512,
      "latitude": 44.803634
    },
    {
      "id": "_15",
      "label": "Ада Циганлија",
      "longitude": 20.41937,
      "latitude": 44.788677
    }
  ],
  "direction_b": [
    {
      "id": "_1",
      "label": "Ада Циганлија",
      "longitude": 20.419837,
      "latitude": 44.788416
    },
    {
      "id": "_2",
      "label": "Блок 42",
      "longitude": 20.416213,
      "latitude": 44.804094
    },
    {
      "id": "_3",
      "label": "Насеље Белвил",
      "longitude": 20.408497,
      "latitude": 44.804427
    },
    {
      "id": "_4",
      "label": "Агостина Нета",
      "longitude": 20.40269,
      "latitude": 44.804681
    },
    {
      "id": "_5",
      "label": "Омладинских Бригада",
      "longitude": 20.399476,
      "latitude": 44.805611
    },
    {
      "id": "_6",
      "label": "Техничка Школа Нови Београд",
      "longitude": 20.399479,
      "latitude": 44.808319
    },
    {
      "id": "_7",
      "label": "Airport City",
      "longitude": 20.402008,
      "latitude": 44.811691
    },
    {
      "id": "_8",
      "label": "Милутина Миланковића",
      "longitude": 20.406107,
      "latitude": 44.816154
    },
    {
      "id": "_9",
      "label": "Зорана Ђинђића булевар",
      "longitude": 20.409674,
      "latitude": 44.820064
    },
    {
      "id": "_10",
      "label": "Архив",
      "longitude": 20.412968,
      "latitude": 44.825488
    },
    {
      "id": "_11",
      "label": "Маршала Толбухина булевар",
      "longitude": 20.411664,
      "latitude": 44.829255
    },
    {
      "id": "_12",
      "label": "Џона Кенедија",
      "longitude": 20.409969,
      "latitude": 44.834214
    },
    {
      "id": "_13",
      "label": "Прве пруге ретензија",
      "longitude": 20.410514,
      "latitude": 44.836725
    },
    {
      "id": "_14",
      "label": "Пољопривредни факултет",
      "longitude": 20.412911,
      "latitude": 44.839425
    },
    {
      "id": "_15",
      "label": "Земун /Ослобођења Кеј/",
      "longitude": 20.416698,
      "latitude": 44.843707
    },
    {
      "id": "_16",
      "label": "Земун /Ослобођења Кеј/",
      "longitude": 20.415779,
      "latitude": 44.84349
    }
  ]
}