{
  "direction_a": [
    {
      "id": "_1",
      "label": "Миријево",
      "longitude": 20.531661,
      "latitude": 44.793657
    },
    {
      "id": "_2",
      "label": "Миријево 2",
      "longitude": 20.532857,
      "latitude": 44.79135
    },
    {
      "id": "_3",
      "label": "Миријевски Венац",
      "longitude": 20.533356,
      "latitude": 44.789398
    },
    {
      "id": "_4",
      "label": "Стојчино Брдо",
      "longitude": 20.530175,
      "latitude": 44.7894
    },
    {
      "id": "_5",
      "label": "Селиште",
      "longitude": 20.527637,
      "latitude": 44.790556
    },
    {
      "id": "_6",
      "label": "Витезова Карађорђеве Звезде",
      "longitude": 20.525342,
      "latitude": 44.792528
    },
    {
      "id": "_7",
      "label": "Душка Радовића",
      "longitude": 20.52108,
      "latitude": 44.791671
    },
    {
      "id": "_8",
      "label": "Милана Ракића",
      "longitude": 20.517622,
      "latitude": 44.792219
    },
    {
      "id": "_9",
      "label": "Мите Ружића",
      "longitude": 20.513479,
      "latitude": 44.791039
    },
    {
      "id": "_10",
      "label": "Др Велизара Косановића",
      "longitude": 20.510855,
      "latitude": 44.791947
    },
    {
      "id": "_11",
      "label": "Пијаца Звездара",
      "longitude": 20.504825,
      "latitude": 44.793228
    },
    {
      "id": "_12",
      "label": "Батутова",
      "longitude": 20.499718,
      "latitude": 44.795304
    },
    {
      "id": "_13",
      "label": "Лион",
      "longitude": 20.49459,
      "latitude": 44.797526
    },
    {
      "id": "_14",
      "label": "Поп Стојанова",
      "longitude": 20.489926,
      "latitude": 44.799479
    },
    {
      "id": "_15",
      "label": "Пијаца Стари Ђерам",
      "longitude": 20.48635,
      "latitude": 44.801003
    },
    {
      "id": "_16",
      "label": "ГО Звездара",
      "longitude": 20.482448,
      "latitude": 44.802621
    },
    {
      "id": "_17",
      "label": "Технички Факултет",
      "longitude": 20.47648,
      "latitude": 44.805093
    },
    {
      "id": "_18",
      "label": "Правни факултет",
      "longitude": 20.472172,
      "latitude": 44.806962
    },
    {
      "id": "_19",
      "label": "Главна пошта",
      "longitude": 20.467218,
      "latitude": 44.809936
    },
    {
      "id": "_20",
      "label": "Адмирала Гепрата",
      "longitude": 20.46143,
      "latitude": 44.806857
    },
    {
      "id": "_21",
      "label": "Милоша Поцерца",
      "longitude": 20.45602,
      "latitude": 44.802401
    },
    {
      "id": "_22",
      "label": "Мостар",
      "longitude": 20.449237,
      "latitude": 44.798754
    },
    {
      "id": "_23",
      "label": "Сајам",
      "longitude": 20.44171,
      "latitude": 44.796529
    },
    {
      "id": "_24",
      "label": "Руска",
      "longitude": 20.436035,
      "latitude": 44.795118
    },
    {
      "id": "_25",
      "label": "Ада Циганлија",
      "longitude": 20.41937,
      "latitude": 44.788677
    }
  ],
  "direction_b": [
    {
      "id": "_1",
      "label": "Ада Циганлија",
      "longitude": 20.419837,
      "latitude": 44.788416
    },
    {
      "id": "_2",
      "label": "Господарска Механа",
      "longitude": 20.433393,
      "latitude": 44.794424
    },
    {
      "id": "_3",
      "label": "Руска",
      "longitude": 20.437784,
      "latitude": 44.795189
    },
    {
      "id": "_4",
      "label": "Сајам",
      "longitude": 20.441944,
      "latitude": 44.796327
    },
    {
      "id": "_5",
      "label": "Мостар",
      "longitude": 20.448743,
      "latitude": 44.79823
    },
    {
      "id": "_6",
      "label": "Вишеградска",
      "longitude": 20.455589,
      "latitude": 44.801673
    },
    {
      "id": "_7",
      "label": "Бирчанинова",
      "longitude": 20.459512,
      "latitude": 44.804929
    },
    {
      "id": "_8",
      "label": "РК Београђанка",
      "longitude": 20.464091,
      "latitude": 44.806307
    },
    {
      "id": "_9",
      "label": "Ресавска",
      "longitude": 20.467983,
      "latitude": 44.809139
    },
    {
      "id": "_10",
      "label": "Правни факултет",
      "longitude": 20.472006,
      "latitude": 44.806772
    },
    {
      "id": "_11",
      "label": "Технички Факултет",
      "longitude": 20.476373,
      "latitude": 44.804924
    },
    {
      "id": "_12",
      "label": "ГО Звездара",
      "longitude": 20.482477,
      "latitude": 44.802328
    },
    {
      "id": "_13",
      "label": "Пијаца Стари Ђерам",
      "longitude": 20.487316,
      "latitude": 44.800295
    },
    {
      "id": "_14",
      "label": "Поп Стојанова",
      "longitude": 20.491484,
      "latitude": 44.798567
    },
    {
      "id": "_15",
      "label": "Лион",
      "longitude": 20.495341,
      "latitude": 44.796936
    },
    {
      "id": "_16",
      "label": "Батутова",
      "longitude": 20.499426,
      "latitude": 44.795172
    },
    {
      "id": "_17",
      "label": "Пијаца Звездара",
      "longitude": 20.504874,
      "latitude": 44.793051
    },
    {
      "id": "_18",
      "label": "Др Велизара Косановића",
      "longitude": 20.508996,
      "latitude": 44.79249
    },
    {
      "id": "_19",
      "label": "Мите Ружића",
      "longitude": 20.514307,
      "latitude": 44.791292
    },
    {
      "id": "_20",
      "label": "Милана Ракића",
      "longitude": 20.517503,
      "latitude": 44.792158
    },
    {
      "id": "_21",
      "label": "Душка Радовића",
      "longitude": 20.520699,
      "latitude": 44.791692
    },
    {
      "id": "_22",
      "label": "Витезова Карађорђеве Звезде",
      "longitude": 20.524457,
      "latitude": 44.792655
    },
    {
      "id": "_23",
      "label": "Селиште",
      "longitude": 20.527516,
      "latitude": 44.790264
    },
    {
      "id": "_24",
      "label": "Стојчино Брдо",
      "longitude": 20.530843,
      "latitude": 44.789233
    },
    {
      "id": "_25",
      "label": "Миријевски Венац",
      "longitude": 20.533601,
      "latitude": 44.789429
    },
    {
      "id": "_26",
      "label": "Миријево 2",
      "longitude": 20.533257,
      "latitude": 44.791106
    },
    {
      "id": "_27",
      "label": "Миријево",
      "longitude": 20.531661,
      "latitude": 44.793657
    }
  ]
}